year,region_name,state_name,municipio_cod,latitude,longitude,yield_kg_ha,production_1000t,area_planted_1000ha
2020,Abaré - BA,BA,2900207,-8.72073,-39.1162,0.0,0.0,0.0
2020,Abaíra - BA,BA,2900108,-13.2488,-41.6619,1170.0,0.158,0.135
2020,Acajutiba - BA,BA,2900306,-11.6575,-38.0197,0.0,0.0,0.0
2020,Adustina - BA,BA,2900355,-10.5437,-38.1113,0.0,0.0,0.0
2020,Aiquara - BA,BA,2900603,-14.1269,-39.8937,0.0,0.0,0.0
2020,Alagoinhas - BA,BA,2900702,-12.1335,-38.4208,0.0,0.0,0.0
2020,Alcobaça - BA,BA,2900801,-17.5195,-39.2036,3500.0,3.15,0.9
2020,Almadina - BA,BA,2900900,-14.7089,-39.6415,2049.0,0.166,0.081
2020,Amargosa - BA,BA,2901007,-13.0215,-39.602,933.0,0.028,0.03
2020,Amélia Rodrigues - BA,BA,2901106,-12.3914,-38.7563,0.0,0.0,0.0
2020,América Dourada - BA,BA,2901155,-11.4429,-41.439,0.0,0.0,0.0
2020,Anagé - BA,BA,2901205,-14.6151,-41.1356,0.0,0.0,0.0
2020,Andaraí - BA,BA,2901304,-12.8049,-41.3297,0.0,0.0,0.0
2020,Andorinha - BA,BA,2901353,-10.3482,-39.8391,0.0,0.0,0.0
2020,Angical - BA,BA,2901403,-12.0063,-44.7003,0.0,0.0,0.0
2020,Anguera - BA,BA,2901502,-12.1462,-39.2462,0.0,0.0,0.0
2020,Antas - BA,BA,2901601,-10.3856,-38.3401,0.0,0.0,0.0
2020,Antônio Cardoso - BA,BA,2901700,-12.4335,-39.1176,0.0,0.0,0.0
2020,Antônio Gonçalves - BA,BA,2901809,-10.5767,-40.2785,667.0,0.002,0.003
2020,Aporá - BA,BA,2901908,-11.6577,-38.0814,0.0,0.0,0.0
2020,Apuarema - BA,BA,2901957,-13.8542,-39.7501,0.0,0.0,0.0
2020,Aracatu - BA,BA,2902005,-14.428,-41.4648,0.0,0.0,0.0
2020,Araci - BA,BA,2902104,-11.3253,-38.9584,0.0,0.0,0.0
2020,Aramari - BA,BA,2902203,-12.0884,-38.4969,0.0,0.0,0.0
2020,Arataca - BA,BA,2902252,-15.2651,-39.419,2000.0,1.1,0.55
2020,Aratuípe - BA,BA,2902302,-13.0716,-39.0038,0.0,0.0,0.0
2020,Araçás - BA,BA,2902054,-12.22,-38.2027,0.0,0.0,0.0
2020,Aurelino Leal - BA,BA,2902401,-14.321,-39.329,0.0,0.0,0.0
2020,Baianópolis - BA,BA,2902500,-12.3016,-44.5388,0.0,0.0,0.0
2020,Baixa Grande - BA,BA,2902609,-11.9519,-40.169,0.0,0.0,0.0
2020,Banzaê - BA,BA,2902658,-10.5788,-38.6212,0.0,0.0,0.0
2020,Barra - BA,BA,2902708,-11.0859,-43.1459,0.0,0.0,0.0
2020,Barra da Estiva - BA,BA,2902807,-13.6237,-41.3347,1250.0,10.427,8.342
2020,Barra do Choça - BA,BA,2902906,-14.8654,-40.5791,1560.0,25.2,16.15
2020,Barra do Mendes - BA,BA,2903003,-11.81,-42.059,700.0,0.07,0.1
2020,Barra do Rocha - BA,BA,2903102,-14.2,-39.5991,0.0,0.0,0.0
2020,Barreiras - BA,BA,2903201,-12.1439,-44.9968,3300.0,16.5,5.0
2020,Barro Alto - BA,BA,2903235,-11.7605,-41.9054,0.0,0.0,0.0
2020,Barro Preto - BA,BA,2903300,-14.7948,-39.476,3000.0,0.03,0.01
2020,Barrocas - BA,BA,2903276,-11.5272,-39.0776,0.0,0.0,0.0
2020,Belmonte - BA,BA,2903409,-15.8608,-38.8758,2800.0,0.42,0.15
2020,Belo Campo - BA,BA,2903508,-15.0334,-41.2652,1200.0,0.012,0.01
2020,Biritinga - BA,BA,2903607,-11.6072,-38.8051,0.0,0.0,0.0
2020,Boa Nova - BA,BA,2903706,-14.3598,-40.2064,600.0,0.012,0.02
2020,Boa Vista do Tupim - BA,BA,2903805,-12.6498,-40.6064,0.0,0.0,0.0
2020,Bom Jesus da Lapa - BA,BA,2903904,-13.2506,-43.4108,0.0,0.0,0.0
2020,Bom Jesus da Serra - BA,BA,2903953,-14.3663,-40.5126,0.0,0.0,0.0
2020,Boninal - BA,BA,2904001,-12.7069,-41.8286,1000.0,0.005,0.005
2020,Bonito - BA,BA,2904050,-11.9668,-41.2647,1400.0,9.8,7.0
2020,Boquira - BA,BA,2904100,-12.8205,-42.7324,0.0,0.0,0.0
2020,Botuporã - BA,BA,2904209,-13.3772,-42.5163,0.0,0.0,0.0
2020,Brejolândia - BA,BA,2904407,-12.4815,-43.9679,0.0,0.0,0.0
2020,Brejões - BA,BA,2904308,-13.1039,-39.7988,678.0,0.8,1.18
2020,Brotas de Macaúbas - BA,BA,2904506,-11.9915,-42.6326,0.0,0.0,0.0
2020,Brumado - BA,BA,2904605,-14.2021,-41.6696,0.0,0.0,0.0
2020,Buerarema - BA,BA,2904704,-14.9595,-39.3028,2000.0,0.02,0.01
2020,Buritirama - BA,BA,2904753,-10.7171,-43.6302,0.0,0.0,0.0
2020,Caatiba - BA,BA,2904803,-14.9699,-40.4092,750.0,0.003,0.004
2020,Cabaceiras do Paraguaçu - BA,BA,2904852,-12.5317,-39.1902,0.0,0.0,0.0
2020,Cachoeira - BA,BA,2904902,-12.5994,-38.9587,0.0,0.0,0.0
2020,Caculé - BA,BA,2905008,-14.5003,-42.2229,500.0,0.001,0.002
2020,Caetanos - BA,BA,2905156,-14.3347,-40.9175,0.0,0.0,0.0
2020,Caetité - BA,BA,2905206,-14.0684,-42.4861,600.0,0.003,0.005
2020,Cafarnaum - BA,BA,2905305,-11.6914,-41.4688,0.0,0.0,0.0
2020,Cairu - BA,BA,2905404,-13.4904,-39.0465,0.0,0.0,0.0
2020,Caldeirão Grande - BA,BA,2905503,-11.0208,-40.2956,0.0,0.0,0.0
2020,Camacan - BA,BA,2905602,-15.4142,-39.4919,2000.0,1.8,0.9
2020,Camamu - BA,BA,2905800,-13.9398,-39.1071,2114.0,0.186,0.088
2020,Camaçari - BA,BA,2905701,-12.6996,-38.3263,0.0,0.0,0.0
2020,Campo Alegre de Lourdes - BA,BA,2905909,-9.52221,-43.0126,0.0,0.0,0.0
2020,Campo Formoso - BA,BA,2906006,-10.5105,-40.32,0.0,0.0,0.0
2020,Canarana - BA,BA,2906204,-11.6858,-41.7677,0.0,0.0,0.0
2020,Canavieiras - BA,BA,2906303,-15.6722,-38.9536,2500.0,0.75,0.3
2020,Candeal - BA,BA,2906402,-11.8049,-39.1203,0.0,0.0,0.0
2020,Candeias - BA,BA,2906501,-12.6716,-38.5472,0.0,0.0,0.0
2020,Candiba - BA,BA,2906600,-14.4097,-42.8667,0.0,0.0,0.0
2020,Cansanção - BA,BA,2906808,-10.6647,-39.4944,0.0,0.0,0.0
2020,Canudos - BA,BA,2906824,-9.90014,-39.1471,0.0,0.0,0.0
2020,Canápolis - BA,BA,2906105,-13.0725,-44.201,0.0,0.0,0.0
2020,Capela do Alto Alegre - BA,BA,2906857,-11.6658,-39.8349,0.0,0.0,0.0
2020,Capim Grosso - BA,BA,2906873,-11.3797,-40.0089,0.0,0.0,0.0
2020,Caravelas - BA,BA,2906907,-17.7268,-39.2597,3000.0,3.0,1.0
2020,Caraíbas - BA,BA,2906899,-14.7177,-41.2603,0.0,0.0,0.0
2020,Cardeal da Silva - BA,BA,2907004,-11.9472,-37.9469,0.0,0.0,0.0
2020,Carinhanha - BA,BA,2907103,-14.2985,-43.7724,0.0,0.0,0.0
2020,Casa Nova - BA,BA,2907202,-9.16408,-40.974,0.0,0.0,0.0
2020,Castro Alves - BA,BA,2907301,-12.7579,-39.4248,0.0,0.0,0.0
2020,Catolândia - BA,BA,2907400,-12.31,-44.8648,0.0,0.0,0.0
2020,Catu - BA,BA,2907509,-12.3513,-38.3791,0.0,0.0,0.0
2020,Caturama - BA,BA,2907558,-13.3239,-42.2904,0.0,0.0,0.0
2020,Caém - BA,BA,2905107,-11.0677,-40.432,0.0,0.0,0.0
2020,Central - BA,BA,2907608,-11.1376,-42.1116,0.0,0.0,0.0
2020,Chorrochó - BA,BA,2907707,-8.9695,-39.0979,0.0,0.0,0.0
2020,Cipó - BA,BA,2907905,-11.1032,-38.5179,0.0,0.0,0.0
2020,Coaraci - BA,BA,2908002,-14.637,-39.5556,1833.0,0.088,0.048
2020,Cocos - BA,BA,2908101,-14.1814,-44.5352,3180.0,3.18,1.0
2020,Conceição da Feira - BA,BA,2908200,-12.5078,-38.9978,0.0,0.0,0.0
2020,Conceição do Almeida - BA,BA,2908309,-12.7836,-39.1715,0.0,0.0,0.0
2020,Conceição do Coité - BA,BA,2908408,-11.56,-39.2808,0.0,0.0,0.0
2020,Conceição do Jacuípe - BA,BA,2908507,-12.3268,-38.7684,0.0,0.0,0.0
2020,Conde - BA,BA,2908606,-11.8179,-37.6131,0.0,0.0,0.0
2020,Condeúba - BA,BA,2908705,-14.9022,-41.9718,0.0,0.0,0.0
2020,Contendas do Sincorá - BA,BA,2908804,-13.7537,-41.048,536.0,0.15,0.28
2020,Coração de Maria - BA,BA,2908903,-12.2333,-38.7487,0.0,0.0,0.0
2020,Cordeiros - BA,BA,2909000,-15.0356,-41.9308,0.0,0.0,0.0
2020,Coribe - BA,BA,2909109,-13.8232,-44.4586,2667.0,0.048,0.018
2020,Coronel João Sá - BA,BA,2909208,-10.2847,-37.9198,0.0,0.0,0.0
2020,Correntina - BA,BA,2909307,-13.3477,-44.6333,0.0,0.0,0.0
2020,Cotegipe - BA,BA,2909406,-12.0228,-44.2566,0.0,0.0,0.0
2020,Cravolândia - BA,BA,2909505,-13.3531,-39.8031,1000.0,0.005,0.005
2020,Cristópolis - BA,BA,2909703,-12.2249,-44.4214,0.0,0.0,0.0
2020,Crisópolis - BA,BA,2909604,-11.5059,-38.1515,0.0,0.0,0.0
2020,Cruz das Almas - BA,BA,2909802,-12.6675,-39.1008,0.0,0.0,0.0
2020,Curaçá - BA,BA,2909901,-8.98458,-39.8997,0.0,0.0,0.0
2020,Cândido Sales - BA,BA,2906709,-15.4993,-41.2414,0.0,0.0,0.0
2020,Cícero Dantas - BA,BA,2907806,-10.5897,-38.3794,0.0,0.0,0.0
2020,Dias d'Ávila - BA,BA,2910057,-12.6187,-38.2926,0.0,0.0,0.0
2020,Dom Basílio - BA,BA,2910107,-13.7565,-41.7677,0.0,0.0,0.0
2020,Dom Macedo Costa - BA,BA,2910206,-12.9016,-39.1923,0.0,0.0,0.0
2020,Dário Meira - BA,BA,2910008,-14.4229,-39.9031,1000.0,0.003,0.003
2020,Elísio Medrado - BA,BA,2910305,-12.9417,-39.5191,0.0,0.0,0.0
2020,Encruzilhada - BA,BA,2910404,-15.5302,-40.9124,1379.0,8.0,5.8
2020,Entre Rios - BA,BA,2910503,-11.9392,-38.0871,0.0,0.0,0.0
2020,Esplanada - BA,BA,2910602,-11.7942,-37.9432,0.0,0.0,0.0
2020,Euclides da Cunha - BA,BA,2910701,-10.5078,-39.0153,0.0,0.0,0.0
2020,Eunápolis - BA,BA,2910727,-16.3715,-39.5821,2961.0,11.4,3.85
2020,Feira da Mata - BA,BA,2910776,-14.2044,-44.2744,0.0,0.0,0.0
2020,Feira de Santana - BA,BA,2910800,-12.2664,-38.9663,0.0,0.0,0.0
2020,Filadélfia - BA,BA,2910859,-10.7405,-40.1437,0.0,0.0,0.0
2020,Firmino Alves - BA,BA,2910909,-14.9823,-39.9269,0.0,0.0,0.0
2020,Floresta Azul - BA,BA,2911006,-14.8629,-39.6579,1600.0,0.04,0.025
2020,Formosa do Rio Preto - BA,BA,2911105,-11.0328,-45.193,0.0,0.0,0.0
2020,Fátima - BA,BA,2910750,-10.616,-38.2239,0.0,0.0,0.0
2020,Gandu - BA,BA,2911204,-13.7441,-39.4747,1000.0,0.015,0.015
2020,Gavião - BA,BA,2911253,-11.4688,-39.7757,0.0,0.0,0.0
2020,Gentio do Ouro - BA,BA,2911303,-11.4342,-42.5077,0.0,0.0,0.0
2020,Glória - BA,BA,2911402,-9.34382,-38.2544,0.0,0.0,0.0
2020,Gongogi - BA,BA,2911501,-14.3195,-39.469,667.0,0.002,0.003
2020,Governador Mangabeira - BA,BA,2911600,-12.5994,-39.0412,0.0,0.0,0.0
2020,Guajeru - BA,BA,2911659,-14.5467,-41.9381,0.0,0.0,0.0
2020,Guanambi - BA,BA,2911709,-14.2231,-42.7799,0.0,0.0,0.0
2020,Guaratinga - BA,BA,2911808,-16.5833,-39.7847,2276.0,3.3,1.45
2020,Heliópolis - BA,BA,2911857,-10.6825,-38.2907,0.0,0.0,0.0
2020,Iaçu - BA,BA,2911907,-12.7666,-40.2056,0.0,0.0,0.0
2020,Ibiassucê - BA,BA,2912004,-14.2711,-42.257,0.0,0.0,0.0
2020,Ibicaraí - BA,BA,2912103,-14.8579,-39.5914,933.0,0.014,0.015
2020,Ibicoara - BA,BA,2912202,-13.4059,-41.284,1150.0,6.146,5.345
2020,Ibicuí - BA,BA,2912301,-14.845,-39.9879,1400.0,0.028,0.02
2020,Ibipeba - BA,BA,2912400,-11.6438,-42.0195,0.0,0.0,0.0
2020,Ibipitanga - BA,BA,2912509,-12.8804,-42.4856,0.0,0.0,0.0
2020,Ibiquera - BA,BA,2912608,-12.6444,-40.9338,0.0,0.0,0.0
2020,Ibirapitanga - BA,BA,2912707,-14.1649,-39.3787,1100.0,0.066,0.06
2020,Ibirapuã - BA,BA,2912806,-17.6832,-40.1129,2396.0,0.575,0.24
2020,Ibirataia - BA,BA,2912905,-14.0643,-39.6459,1000.0,0.005,0.005
2020,Ibitiara - BA,BA,2913002,-12.6502,-42.2179,500.0,0.002,0.004
2020,Ibititá - BA,BA,2913101,-11.5414,-41.9748,0.0,0.0,0.0
2020,Ibotirama - BA,BA,2913200,-12.1779,-43.2167,0.0,0.0,0.0
2020,Ichu - BA,BA,2913309,-11.7431,-39.1905,0.0,0.0,0.0
2020,Igaporã - BA,BA,2913408,-13.774,-42.7155,500.0,0.001,0.002
2020,Igrapiúna - BA,BA,2913457,-13.8295,-39.1361,0.0,0.0,0.0
2020,Iguaí - BA,BA,2913507,-14.7528,-40.0894,1200.0,0.12,0.1
2020,Ilhéus - BA,BA,2913606,-14.793,-39.046,2542.0,0.6,0.236
2020,Inhambupe - BA,BA,2913705,-11.781,-38.355,0.0,0.0,0.0
2020,Ipecaetá - BA,BA,2913804,-12.3028,-39.3069,0.0,0.0,0.0
2020,Ipiaú - BA,BA,2913903,-14.1226,-39.7353,1000.0,0.02,0.02
2020,Ipirá - BA,BA,2914000,-12.1561,-39.7359,0.0,0.0,0.0
2020,Ipupiara - BA,BA,2914109,-11.8219,-42.6179,0.0,0.0,0.0
2020,Irajuba - BA,BA,2914208,-13.2563,-40.0848,667.0,0.032,0.048
2020,Iramaia - BA,BA,2914307,-13.2902,-40.9595,773.0,0.17,0.22
2020,Iraquara - BA,BA,2914406,-12.2429,-41.6155,480.0,0.508,1.058
2020,Irará - BA,BA,2914505,-12.0504,-38.7631,0.0,0.0,0.0
2020,Irecê - BA,BA,2914604,-11.3033,-41.8535,0.0,0.0,0.0
2020,Itabela - BA,BA,2914653,-16.5732,-39.5593,3146.0,12.9,4.1
2020,Itaberaba - BA,BA,2914703,-12.5242,-40.3059,0.0,0.0,0.0
2020,Itabuna - BA,BA,2914802,-14.7876,-39.2781,0.0,0.0,0.0
2020,Itacaré - BA,BA,2914901,-14.2784,-38.9959,2286.0,0.08,0.035
2020,Itaeté - BA,BA,2915007,-12.9831,-40.9677,0.0,0.0,0.0
2020,Itagi - BA,BA,2915106,-14.1615,-40.0131,286.0,0.002,0.007
2020,Itagibá - BA,BA,2915205,-14.2782,-39.8449,667.0,0.002,0.003
2020,Itagimirim - BA,BA,2915304,-16.0819,-39.6133,2000.0,0.034,0.017
2020,Itaguaçu da Bahia - BA,BA,2915353,-11.0147,-42.3997,0.0,0.0,0.0
2020,Itaju do Colônia - BA,BA,2915403,-15.1366,-39.7283,0.0,0.0,0.0
2020,Itajuípe - BA,BA,2915502,-14.6788,-39.3698,1969.0,0.128,0.065
2020,Itamaraju - BA,BA,2915601,-17.0378,-39.5386,3486.0,25.1,7.2
2020,Itamari - BA,BA,2915700,-13.7782,-39.683,1111.0,0.02,0.018
2020,Itambé - BA,BA,2915809,-15.2429,-40.63,1320.0,0.33,0.25
2020,Itanagra - BA,BA,2915908,-12.2614,-38.0436,0.0,0.0,0.0
2020,Itanhém - BA,BA,2916005,-17.1642,-40.3321,2769.0,1.8,0.65
2020,Itaparica - BA,BA,2916104,-12.8932,-38.68,0.0,0.0,0.0
2020,Itapebi - BA,BA,2916302,-15.9551,-39.5329,1880.0,0.094,0.05
2020,Itapetinga - BA,BA,2916401,-15.2475,-40.2482,0.0,0.0,0.0
2020,Itapicuru - BA,BA,2916500,-11.3088,-38.2262,0.0,0.0,0.0
2020,Itapitanga - BA,BA,2916609,-14.4139,-39.5657,2000.0,0.028,0.014
2020,Itapé - BA,BA,2916203,-14.8876,-39.4239,1333.0,0.008,0.006
2020,Itaquara - BA,BA,2916708,-13.4459,-39.9378,0.0,0.0,0.0
2020,Itarantim - BA,BA,2916807,-15.6528,-40.065,0.0,0.0,0.0
2020,Itatim - BA,BA,2916856,-12.7099,-39.6952,0.0,0.0,0.0
2020,Itiruçu - BA,BA,2916906,-13.529,-40.1472,762.0,0.24,0.315
2020,Itiúba - BA,BA,2917003,-10.6948,-39.8446,500.0,0.001,0.002
2020,Itororó - BA,BA,2917102,-15.11,-40.0684,0.0,0.0,0.0
2020,Ituaçu - BA,BA,2917201,-13.8107,-41.3003,909.0,2.97,3.267
2020,Ituberá - BA,BA,2917300,-13.7249,-39.1481,0.0,0.0,0.0
2020,Iuiu - BA,BA,2917334,-14.4054,-43.5595,0.0,0.0,0.0
2020,Jaborandi - BA,BA,2917359,-13.6071,-44.4255,0.0,0.0,0.0
2020,Jacaraci - BA,BA,2917409,-14.8541,-42.4329,600.0,0.003,0.005
2020,Jacobina - BA,BA,2917508,-11.1812,-40.5117,0.0,0.0,0.0
2020,Jaguaquara - BA,BA,2917607,-13.5248,-39.964,556.0,0.05,0.09
2020,Jaguarari - BA,BA,2917706,-10.2569,-40.1999,0.0,0.0,0.0
2020,Jaguaripe - BA,BA,2917805,-13.1109,-38.8939,1500.0,0.012,0.008
2020,Jandaíra - BA,BA,2917904,-11.5616,-37.7853,0.0,0.0,0.0
2020,Jequié - BA,BA,2918001,-13.8509,-40.0877,400.0,0.02,0.05
2020,Jeremoabo - BA,BA,2918100,-10.0685,-38.3471,0.0,0.0,0.0
2020,Jiquiriçá - BA,BA,2918209,-13.2621,-39.5737,0.0,0.0,0.0
2020,Jitaúna - BA,BA,2918308,-14.0131,-39.8969,0.0,0.0,0.0
2020,João Dourado - BA,BA,2918357,-11.3486,-41.6548,0.0,0.0,0.0
2020,Juazeiro - BA,BA,2918407,-9.41622,-40.5033,0.0,0.0,0.0
2020,Jucuruçu - BA,BA,2918456,-16.8488,-40.1641,2762.0,2.9,1.05
2020,Jussara - BA,BA,2918506,-11.0431,-41.9702,0.0,0.0,0.0
2020,Jussari - BA,BA,2918555,-15.192,-39.491,1450.0,0.145,0.1
2020,Jussiape - BA,BA,2918605,-13.5155,-41.5882,1158.0,0.11,0.095
2020,Lafaiete Coutinho - BA,BA,2918704,-13.6541,-40.2119,483.0,0.057,0.118
2020,Lagoa Real - BA,BA,2918753,-14.0334,-42.1328,0.0,0.0,0.0
2020,Laje - BA,BA,2918803,-13.1673,-39.4213,0.0,0.0,0.0
2020,Lajedinho - BA,BA,2919009,-12.3529,-40.9048,0.0,0.0,0.0
2020,Lajedo do Tabocal - BA,BA,2919058,-13.4663,-40.2204,500.0,0.1,0.2
2020,Lajedão - BA,BA,2918902,-17.6056,-40.3383,1667.0,0.1,0.06
2020,Lamarão - BA,BA,2919108,-11.773,-38.887,0.0,0.0,0.0
2020,Lapão - BA,BA,2919157,-11.3851,-41.8286,0.0,0.0,0.0
2020,Lauro de Freitas - BA,BA,2919207,-12.8978,-38.321,0.0,0.0,0.0
2020,Lençóis - BA,BA,2919306,-12.5616,-41.3928,300.0,0.258,0.86
2020,Licínio de Almeida - BA,BA,2919405,-14.6842,-42.5095,1455.0,0.032,0.022
2020,Livramento de Nossa Senhora - BA,BA,2919504,-13.6369,-41.8432,0.0,0.0,0.0
2020,Luís Eduardo Magalhães - BA,BA,2919553,-12.0956,-45.7866,2940.0,2.94,1.0
2020,Macajuba - BA,BA,2919603,-12.1326,-40.3571,0.0,0.0,0.0
2020,Macarani - BA,BA,2919702,-15.5646,-40.4209,835.0,0.071,0.085
2020,Macaúbas - BA,BA,2919801,-13.0186,-42.6945,1000.0,0.002,0.002
2020,Macururé - BA,BA,2919900,-9.16226,-39.0518,0.0,0.0,0.0
2020,Madre de Deus - BA,BA,2919926,-12.7446,-38.6153,0.0,0.0,0.0
2020,Maetinga - BA,BA,2919959,-14.6623,-41.4915,0.0,0.0,0.0
2020,Maiquinique - BA,BA,2920007,-15.624,-40.2587,0.0,0.0,0.0
2020,Mairi - BA,BA,2920106,-11.7107,-40.1437,0.0,0.0,0.0
2020,Malhada - BA,BA,2920205,-14.3371,-43.7686,0.0,0.0,0.0
2020,Malhada de Pedras - BA,BA,2920304,-14.3847,-41.8842,0.0,0.0,0.0
2020,Manoel Vitorino - BA,BA,2920403,-14.1476,-40.2399,0.0,0.0,0.0
2020,Mansidão - BA,BA,2920452,-10.7227,-44.0428,0.0,0.0,0.0
2020,Maracás - BA,BA,2920502,-13.4355,-40.4323,763.0,0.244,0.32
2020,Maragogipe - BA,BA,2920601,-12.776,-38.9175,0.0,0.0,0.0
2020,Maraú - BA,BA,2920700,-14.1035,-39.0137,2087.0,0.24,0.115
2020,Marcionílio Souza - BA,BA,2920809,-13.0064,-40.5295,0.0,0.0,0.0
2020,Mascote - BA,BA,2920908,-15.5542,-39.3016,1615.0,0.42,0.26
2020,Mata de São João - BA,BA,2921005,-12.5307,-38.3009,0.0,0.0,0.0
2020,Matina - BA,BA,2921054,-13.9109,-42.8439,0.0,0.0,0.0
2020,Medeiros Neto - BA,BA,2921104,-17.3707,-40.2238,2000.0,0.18,0.09
2020,Miguel Calmon - BA,BA,2921203,-11.4299,-40.6031,833.0,0.125,0.15
2020,Milagres - BA,BA,2921302,-12.8646,-39.8611,0.0,0.0,0.0
2020,Mirangaba - BA,BA,2921401,-10.961,-40.574,0.0,0.0,0.0
2020,Mirante - BA,BA,2921450,-14.2385,-40.7718,0.0,0.0,0.0
2020,Monte Santo - BA,BA,2921500,-10.4374,-39.3321,0.0,0.0,0.0
2020,Morpará - BA,BA,2921609,-11.5569,-43.2766,0.0,0.0,0.0
2020,Morro do Chapéu - BA,BA,2921708,-11.5488,-41.1565,1000.0,0.45,0.45
2020,Mortugaba - BA,BA,2921807,-15.0225,-42.3727,533.0,0.008,0.015
2020,Mucugê - BA,BA,2921906,-13.0053,-41.3703,2900.0,4.176,1.44
2020,Mucuri - BA,BA,2922003,-18.0754,-39.5565,2808.0,1.46,0.52
2020,Mulungu do Morro - BA,BA,2922052,-11.9648,-41.6374,900.0,0.9,1.0
2020,Mundo Novo - BA,BA,2922102,-11.8541,-40.4714,1220.0,0.061,0.05
2020,Muniz Ferreira - BA,BA,2922201,-13.0092,-39.1092,0.0,0.0,0.0
2020,Muquém do São Francisco - BA,BA,2922250,-12.065,-43.5497,0.0,0.0,0.0
2020,Muritiba - BA,BA,2922300,-12.6329,-38.9921,0.0,0.0,0.0
2020,Mutuípe - BA,BA,2922409,-13.2284,-39.5044,1000.0,0.02,0.02
2020,Nazaré - BA,BA,2922508,-13.0235,-39.0108,0.0,0.0,0.0
2020,Nilo Peçanha - BA,BA,2922607,-13.604,-39.1091,0.0,0.0,0.0
2020,Nordestina - BA,BA,2922656,-10.8192,-39.4297,0.0,0.0,0.0
2020,Nova Canaã - BA,BA,2922706,-14.7912,-40.1458,1085.0,0.738,0.68
2020,Nova Fátima - BA,BA,2922730,-11.6031,-39.6302,0.0,0.0,0.0
2020,Nova Ibiá - BA,BA,2922755,-13.812,-39.6182,800.0,0.016,0.02
2020,Nova Itarana - BA,BA,2922805,-13.0241,-40.0653,719.0,0.205,0.285
2020,Nova Redenção - BA,BA,2922854,-12.815,-41.0748,0.0,0.0,0.0
2020,Nova Soure - BA,BA,2922904,-11.2329,-38.4871,0.0,0.0,0.0
2020,Nova Viçosa - BA,BA,2923001,-17.8926,-39.3743,2571.0,0.9,0.35
2020,Novo Horizonte - BA,BA,2923035,-12.8083,-42.1682,0.0,0.0,0.0
2020,Novo Triunfo - BA,BA,2923050,-10.3182,-38.4014,0.0,0.0,0.0
2020,Olindina - BA,BA,2923100,-11.3497,-38.3379,0.0,0.0,0.0
2020,Oliveira dos Brejinhos - BA,BA,2923209,-12.3132,-42.8969,0.0,0.0,0.0
2020,Ouriçangas - BA,BA,2923308,-12.0175,-38.6166,0.0,0.0,0.0
2020,Ourolândia - BA,BA,2923357,-10.9578,-41.0756,0.0,0.0,0.0
2020,Palmas de Monte Alto - BA,BA,2923407,-14.2676,-43.1609,0.0,0.0,0.0
2020,Palmeiras - BA,BA,2923506,-12.5059,-41.5809,250.0,0.002,0.008
2020,Paramirim - BA,BA,2923605,-13.4388,-42.2395,0.0,0.0,0.0
2020,Paratinga - BA,BA,2923704,-12.687,-43.1798,0.0,0.0,0.0
2020,Paripiranga - BA,BA,2923803,-10.6859,-37.8626,0.0,0.0,0.0
2020,Pau Brasil - BA,BA,2923902,-15.4572,-39.6458,1956.0,0.088,0.045
2020,Paulo Afonso - BA,BA,2924009,-9.3983,-38.2216,0.0,0.0,0.0
2020,Pedro Alexandre - BA,BA,2924207,-10.012,-37.8932,0.0,0.0,0.0
2020,Pedrão - BA,BA,2924108,-12.1491,-38.6487,0.0,0.0,0.0
2020,Piatã - BA,BA,2924306,-13.1465,-41.7702,1250.0,1.3,1.04
2020,Pilão Arcado - BA,BA,2924405,-10.0051,-42.4936,0.0,0.0,0.0
2020,Pindaí - BA,BA,2924504,-14.4921,-42.686,0.0,0.0,0.0
2020,Pindobaçu - BA,BA,2924603,-10.7433,-40.3675,0.0,0.0,0.0
2020,Pintadas - BA,BA,2924652,-11.8117,-39.9009,0.0,0.0,0.0
2020,Piraí do Norte - BA,BA,2924678,-13.759,-39.3836,0.0,0.0,0.0
2020,Piripá - BA,BA,2924702,-14.9444,-41.7168,0.0,0.0,0.0
2020,Piritiba - BA,BA,2924801,-11.73,-40.5587,0.0,0.0,0.0
2020,Planaltino - BA,BA,2924900,-13.2618,-40.3695,900.0,0.045,0.05
2020,Planalto - BA,BA,2925006,-14.6654,-40.4718,1311.0,2.95,2.25
2020,Pojuca - BA,BA,2925204,-12.4303,-38.3374,0.0,0.0,0.0
2020,Ponto Novo - BA,BA,2925253,-10.8653,-40.1311,0.0,0.0,0.0
2020,Porto Seguro - BA,BA,2925303,-16.4435,-39.0643,3200.0,14.4,4.5
2020,Potiraguá - BA,BA,2925402,-15.5943,-39.8638,0.0,0.0,0.0
2020,Poções - BA,BA,2925105,-14.5234,-40.3634,1122.0,0.875,0.78
2020,Prado - BA,BA,2925501,-17.3364,-39.2227,3633.0,21.8,6.0
2020,Presidente Dutra - BA,BA,2925600,-11.2923,-41.9843,0.0,0.0,0.0
2020,Presidente Jânio Quadros - BA,BA,2925709,-14.6885,-41.6798,0.0,0.0,0.0
2020,Presidente Tancredo Neves - BA,BA,2925758,-13.4471,-39.4203,1000.0,0.02,0.02
2020,Pé de Serra - BA,BA,2924058,-11.8313,-39.611,0.0,0.0,0.0
2020,Queimadas - BA,BA,2925808,-10.9736,-39.6293,0.0,0.0,0.0
2020,Quijingue - BA,BA,2925907,-10.7505,-39.2137,0.0,0.0,0.0
2020,Quixabeira - BA,BA,2925931,-11.4031,-40.12,0.0,0.0,0.0
2020,Rafael Jambeiro - BA,BA,2925956,-12.4053,-39.5007,0.0,0.0,0.0
2020,Remanso - BA,BA,2926004,-9.61944,-42.0848,0.0,0.0,0.0
2020,Retirolândia - BA,BA,2926103,-11.4832,-39.4234,0.0,0.0,0.0
2020,Riacho de Santana - BA,BA,2926400,-13.6059,-42.9397,0.0,0.0,0.0
2020,Riachão das Neves - BA,BA,2926202,-11.7508,-44.9143,0.0,0.0,0.0
2020,Riachão do Jacuípe - BA,BA,2926301,-11.8067,-39.3818,0.0,0.0,0.0
2020,Ribeira do Amparo - BA,BA,2926509,-11.0421,-38.4242,0.0,0.0,0.0
2020,Ribeira do Pombal - BA,BA,2926608,-10.8373,-38.5382,0.0,0.0,0.0
2020,Ribeirão do Largo - BA,BA,2926657,-15.4508,-40.7441,1457.0,2.04,1.4
2020,Rio Real - BA,BA,2927002,-11.4814,-37.9332,0.0,0.0,0.0
2020,Rio de Contas - BA,BA,2926707,-13.5852,-41.8048,1050.0,0.21,0.2
2020,Rio do Antônio - BA,BA,2926806,-14.4071,-42.0721,0.0,0.0,0.0
2020,Rio do Pires - BA,BA,2926905,-13.1185,-42.2902,0.0,0.0,0.0
2020,Rodelas - BA,BA,2927101,-8.85021,-38.78,0.0,0.0,0.0
2020,Ruy Barbosa - BA,BA,2927200,-12.2816,-40.4931,700.0,0.007,0.01
2020,Salinas da Margarida - BA,BA,2927309,-12.873,-38.7562,0.0,0.0,0.0
2020,Salvador - BA,BA,2927408,-12.9718,-38.5011,0.0,0.0,0.0
2020,Santa Brígida - BA,BA,2927606,-9.73227,-38.1209,0.0,0.0,0.0
2020,Santa Bárbara - BA,BA,2927507,-11.9515,-38.9681,0.0,0.0,0.0
2020,Santa Cruz Cabrália - BA,BA,2927705,-16.2825,-39.0295,3429.0,4.8,1.4
2020,Santa Cruz da Vitória - BA,BA,2927804,-14.964,-39.8115,0.0,0.0,0.0
2020,Santa Inês - BA,BA,2927903,-13.2793,-39.814,200.0,0.002,0.01
2020,Santa Luzia - BA,BA,2928059,-15.4342,-39.3287,2385.0,1.55,0.65
2020,Santa Maria da Vitória - BA,BA,2928109,-13.3859,-44.2011,0.0,0.0,0.0
2020,Santa Rita de Cássia - BA,BA,2928406,-11.0063,-44.5255,0.0,0.0,0.0
2020,Santa Terezinha - BA,BA,2928505,-12.7697,-39.5215,0.0,0.0,0.0
2020,Santaluz - BA,BA,2928000,-11.2508,-39.375,0.0,0.0,0.0
2020,Santana - BA,BA,2928208,-12.9792,-44.0506,0.0,0.0,0.0
2020,Santanópolis - BA,BA,2928307,-12.0311,-38.8694,0.0,0.0,0.0
2020,Santo Amaro - BA,BA,2928604,-12.5472,-38.7137,0.0,0.0,0.0
2020,Santo Antônio de Jesus - BA,BA,2928703,-12.9614,-39.2584,0.0,0.0,0.0
2020,Santo Estêvão - BA,BA,2928802,-12.428,-39.2505,0.0,0.0,0.0
2020,Sapeaçu - BA,BA,2929602,-12.7208,-39.1824,0.0,0.0,0.0
2020,Saubara - BA,BA,2929750,-12.7387,-38.7625,0.0,0.0,0.0
2020,Saúde - BA,BA,2929800,-10.9428,-40.4155,0.0,0.0,0.0
2020,Seabra - BA,BA,2929909,-12.4169,-41.7722,480.0,0.672,1.4
2020,Sebastião Laranjeiras - BA,BA,2930006,-14.571,-42.9434,0.0,0.0,0.0
2020,Senhor do Bonfim - BA,BA,2930105,-10.4594,-40.1865,500.0,0.001,0.002
2020,Sento Sé - BA,BA,2930204,-9.74138,-41.8786,0.0,0.0,0.0
2020,Serra Dourada - BA,BA,2930303,-12.759,-43.9504,0.0,0.0,0.0
2020,Serra Preta - BA,BA,2930402,-12.156,-39.3305,0.0,0.0,0.0
2020,Serra do Ramalho - BA,BA,2930154,-13.5659,-43.5929,0.0,0.0,0.0
2020,Serrinha - BA,BA,2930501,-11.6584,-39.01,0.0,0.0,0.0
2020,Serrolândia - BA,BA,2930600,-11.4085,-40.2983,0.0,0.0,0.0
2020,Simões Filho - BA,BA,2930709,-12.7866,-38.4029,0.0,0.0,0.0
2020,Sobradinho - BA,BA,2930774,-9.45024,-40.8145,0.0,0.0,0.0
2020,Souto Soares - BA,BA,2930808,-12.088,-41.6427,120.0,0.012,0.1
2020,Sátiro Dias - BA,BA,2929701,-11.5929,-38.5938,0.0,0.0,0.0
2020,São Desidério - BA,BA,2928901,-12.3572,-44.9769,3182.0,7.0,2.2
2020,São Domingos - BA,BA,2928950,-11.4649,-39.5268,0.0,0.0,0.0
2020,São Felipe - BA,BA,2929107,-12.8394,-39.0893,0.0,0.0,0.0
2020,São Francisco do Conde - BA,BA,2929206,-12.6183,-38.6786,0.0,0.0,0.0
2020,São Félix - BA,BA,2929008,-12.6104,-38.9727,0.0,0.0,0.0
2020,São Félix do Coribe - BA,BA,2929057,-13.4019,-44.1837,0.0,0.0,0.0
2020,São Gabriel - BA,BA,2929255,-11.2175,-41.8843,0.0,0.0,0.0
2020,São Gonçalo dos Campos - BA,BA,2929305,-12.4331,-38.9663,0.0,0.0,0.0
2020,São José da Vitória - BA,BA,2929354,-15.0787,-39.3437,1500.0,0.015,0.01
2020,São José do Jacuípe - BA,BA,2929370,-11.4137,-39.8669,0.0,0.0,0.0
2020,São Miguel das Matas - BA,BA,2929404,-13.0434,-39.4578,0.0,0.0,0.0
2020,São Sebastião do Passé - BA,BA,2929503,-12.5123,-38.4905,0.0,0.0,0.0
2020,Sítio do Mato - BA,BA,2930758,-13.0801,-43.4689,0.0,0.0,0.0
2020,Sítio do Quinto - BA,BA,2930766,-10.3545,-38.2213,0.0,0.0,0.0
2020,Tabocas do Brejo Velho - BA,BA,2930907,-12.7026,-44.0075,0.0,0.0,0.0
2020,Tanhaçu - BA,BA,2931004,-14.0197,-41.2473,1250.0,0.1,0.08
2020,Tanque Novo - BA,BA,2931053,-13.5485,-42.4934,0.0,0.0,0.0
2020,Tanquinho - BA,BA,2931103,-11.968,-39.1033,0.0,0.0,0.0
2020,Taperoá - BA,BA,2931202,-13.5321,-39.1009,1524.0,0.125,0.082
2020,Tapiramutá - BA,BA,2931301,-11.8475,-40.7927,951.0,0.39,0.41
2020,Teixeira de Freitas - BA,BA,2931350,-17.5399,-39.74,2992.0,7.48,2.5
2020,Teodoro Sampaio - BA,BA,2931400,-12.295,-38.6347,0.0,0.0,0.0
2020,Teofilândia - BA,BA,2931509,-11.4827,-38.9913,0.0,0.0,0.0
2020,Teolândia - BA,BA,2931608,-13.5896,-39.484,1250.0,0.01,0.008
2020,Terra Nova - BA,BA,2931707,-12.3888,-38.6238,0.0,0.0,0.0
2020,Tremedal - BA,BA,2931806,-14.9736,-41.4142,1200.0,0.012,0.01
2020,Tucano - BA,BA,2931905,-10.9584,-38.7894,0.0,0.0,0.0
2020,Uauá - BA,BA,2932002,-9.83325,-39.4794,0.0,0.0,0.0
2020,Ubaitaba - BA,BA,2932200,-14.303,-39.3222,0.0,0.0,0.0
2020,Ubatã - BA,BA,2932309,-14.2063,-39.5207,1200.0,0.006,0.005
2020,Ubaíra - BA,BA,2932101,-13.2714,-39.666,722.0,0.013,0.018
2020,Uibaí - BA,BA,2932408,-11.3394,-42.1354,0.0,0.0,0.0
2020,Umburanas - BA,BA,2932457,-10.7339,-41.3234,0.0,0.0,0.0
2020,Una - BA,BA,2932507,-15.2791,-39.0765,3125.0,1.25,0.4
2020,Urandi - BA,BA,2932606,-14.7678,-42.6498,600.0,0.006,0.01
2020,Uruçuca - BA,BA,2932705,-14.5963,-39.2851,2947.0,0.112,0.038
2020,Utinga - BA,BA,2932804,-12.0783,-41.0954,600.0,0.18,0.3
2020,Valente - BA,BA,2933000,-11.4062,-39.457,0.0,0.0,0.0
2020,Valença - BA,BA,2932903,-13.3669,-39.073,1455.0,0.16,0.11
2020,Varzedo - BA,BA,2933174,-12.9672,-39.3919,0.0,0.0,0.0
2020,Vera Cruz - BA,BA,2933208,-12.9568,-38.6153,0.0,0.0,0.0
2020,Vereda - BA,BA,2933257,-17.2183,-40.0974,2792.0,0.74,0.265
2020,Vitória da Conquista - BA,BA,2933307,-14.8615,-40.8442,1193.0,6.8,5.7
2020,Várzea Nova - BA,BA,2933158,-11.2557,-40.9432,0.0,0.0,0.0
2020,Várzea da Roça - BA,BA,2933059,-11.6005,-40.1328,0.0,0.0,0.0
2020,Várzea do Poço - BA,BA,2933109,-11.5273,-40.3149,0.0,0.0,0.0
2020,Wagner - BA,BA,2933406,-12.2819,-41.1715,1053.0,0.04,0.038
2020,Wanderley - BA,BA,2933455,-12.1144,-43.8958,0.0,0.0,0.0
2020,Wenceslau Guimarães - BA,BA,2933505,-13.6908,-39.4762,1429.0,0.2,0.14
2020,Xique-Xique - BA,BA,2933604,-10.823,-42.7245,0.0,0.0,0.0
2020,Água Fria - BA,BA,2900405,-11.8618,-38.7639,0.0,0.0,0.0
2020,Érico Cardoso - BA,BA,2900504,-13.4215,-42.1352,833.0,0.005,0.006
2020,Afonso Cláudio - ES,ES,3200102,-20.0778,-41.1261,1750.0,20.126,11.5
2020,Alegre - ES,ES,3200201,-20.758,-41.5382,1437.0,7.509,5.225
2020,Alfredo Chaves - ES,ES,3200300,-20.6396,-40.7543,1777.0,7.698,4.333
2020,Alto Rio Novo - ES,ES,3200359,-19.0618,-41.0209,1927.0,5.612,2.913
2020,Anchieta - ES,ES,3200409,-20.7955,-40.6425,1423.0,1.494,1.05
2020,Apiacá - ES,ES,3200508,-21.1523,-41.5693,1508.0,2.367,1.57
2020,Aracruz - ES,ES,3200607,-19.82,-40.2764,2355.0,12.696,5.391
2020,Atílio Vivácqua - ES,ES,3200706,-20.913,-41.1986,1096.0,1.37,1.25
2020,Baixo Guandu - ES,ES,3200805,-19.5213,-41.0109,1550.0,5.442,3.51
2020,Barra de São Francisco - ES,ES,3200904,-18.7548,-40.8965,2360.0,11.813,5.005
2020,Boa Esperança - ES,ES,3201001,-18.5395,-40.3025,2160.0,10.152,4.7
2020,Bom Jesus do Norte - ES,ES,3201100,-21.1173,-41.6731,2104.0,0.484,0.23
2020,Brejetuba - ES,ES,3201159,-20.1395,-41.2954,2343.0,28.11,12.0
2020,Cachoeiro de Itapemirim - ES,ES,3201209,-20.8462,-41.1198,1341.0,6.816,5.083
2020,Cariacica - ES,ES,3201308,-20.2632,-40.4165,3378.0,1.091,0.323
2020,Castelo - ES,ES,3201407,-20.6033,-41.2031,2293.0,26.203,11.427
2020,Colatina - ES,ES,3201506,-19.5493,-40.6269,2393.0,23.928,10.0
2020,Conceição da Barra - ES,ES,3201605,-18.5883,-39.7362,1793.0,1.766,0.985
2020,Conceição do Castelo - ES,ES,3201704,-20.3639,-41.2417,1719.0,7.044,4.097
2020,Divino de São Lourenço - ES,ES,3201803,-20.6229,-41.6937,1980.0,3.762,1.9
2020,Domingos Martins - ES,ES,3201902,-20.3603,-40.6594,1426.0,8.526,5.98
2020,Dores do Rio Preto - ES,ES,3202009,-20.6931,-41.8405,1800.0,5.76,3.2
2020,Ecoporanga - ES,ES,3202108,-18.3702,-40.836,1588.0,2.477,1.56
2020,Fundão - ES,ES,3202207,-19.937,-40.4078,2996.0,7.437,2.482
2020,Governador Lindenberg - ES,ES,3202256,-19.1864,-40.4473,2400.0,22.08,9.2
2020,Guarapari - ES,ES,3202405,-20.6772,-40.5093,1164.0,2.387,2.05
2020,Guaçuí - ES,ES,3202306,-20.7668,-41.6734,2040.0,10.3,5.05
2020,Ibatiba - ES,ES,3202454,-20.2347,-41.5087,1920.0,14.4,7.5
2020,Ibiraçu - ES,ES,3202504,-19.8366,-40.3732,2525.0,3.946,1.563
2020,Ibitirama - ES,ES,3202553,-20.5466,-41.6667,1800.0,9.0,5.0
2020,Iconha - ES,ES,3202603,-20.7913,-40.8132,1478.0,5.912,3.999
2020,Irupi - ES,ES,3202652,-20.3501,-41.6444,2400.0,23.528,9.804
2020,Itaguaçu - ES,ES,3202702,-19.8018,-40.8601,1921.0,13.425,6.99
2020,Itapemirim - ES,ES,3202801,-21.0095,-40.8307,741.0,0.441,0.595
2020,Itarana - ES,ES,3202900,-19.875,-40.8753,1638.0,5.93,3.62
2020,Iúna - ES,ES,3203007,-20.3531,-41.5334,2402.0,30.12,12.54
2020,Jaguaré - ES,ES,3203056,-18.907,-40.0759,2170.0,27.177,12.525
2020,Jerônimo Monteiro - ES,ES,3203106,-20.7994,-41.3948,1922.0,4.364,2.27
2020,João Neiva - ES,ES,3203130,-19.7577,-40.386,2313.0,2.877,1.244
2020,Laranja da Terra - ES,ES,3203163,-19.8994,-41.0621,1555.0,3.616,2.325
2020,Linhares - ES,ES,3203205,-19.3946,-40.0643,2351.0,34.8,14.8
2020,Mantenópolis - ES,ES,3203304,-18.8594,-41.124,1772.0,7.296,4.117
2020,Marataízes - ES,ES,3203320,-21.0398,-40.8384,0.0,0.0,0.0
2020,Marechal Floriano - ES,ES,3203346,-20.4159,-40.67,2087.0,4.8,2.3
2020,Marilândia - ES,ES,3203353,-19.4114,-40.5456,1050.0,7.98,7.6
2020,Mimoso do Sul - ES,ES,3203403,-21.0628,-41.3615,2165.0,16.677,7.702
2020,Montanha - ES,ES,3203502,-18.1303,-40.3668,2256.0,6.993,3.1
2020,Mucurici - ES,ES,3203601,-18.0965,-40.52,2421.0,0.138,0.057
2020,Muniz Freire - ES,ES,3203700,-20.4652,-41.4156,2150.0,18.655,8.675
2020,Muqui - ES,ES,3203809,-20.9509,-41.346,1472.0,5.499,3.737
2020,Nova Venécia - ES,ES,3203908,-18.715,-40.4053,2026.0,23.754,11.726
2020,Pancas - ES,ES,3204005,-19.2229,-40.8534,1630.0,20.13,12.35
2020,Pedro Canário - ES,ES,3204054,-18.3004,-39.9574,2035.0,1.825,0.897
2020,Pinheiros - ES,ES,3204104,-18.4141,-40.2171,2137.0,15.748,7.37
2020,Piúma - ES,ES,3204203,-20.8334,-40.7268,2233.0,0.574,0.257
2020,Ponto Belo - ES,ES,3204252,-18.1253,-40.5458,2196.0,0.729,0.332
2020,Presidente Kennedy - ES,ES,3204302,-21.0964,-41.0468,640.0,0.064,0.1
2020,Rio Bananal - ES,ES,3204351,-19.2719,-40.3366,2379.0,40.2,16.9
2020,Rio Novo do Sul - ES,ES,3204401,-20.8556,-40.9388,1144.0,2.694,2.355
2020,Santa Leopoldina - ES,ES,3204500,-20.0999,-40.527,3145.0,13.886,4.415
2020,Santa Maria de Jetibá - ES,ES,3204559,-20.0253,-40.7439,1210.0,2.522,2.085
2020,Santa Teresa - ES,ES,3204609,-19.9363,-40.5979,1808.0,16.799,9.292
2020,Serra - ES,ES,3205002,-20.121,-40.3074,2190.0,1.75,0.799
2020,Sooretama - ES,ES,3205010,-19.1897,-40.0974,2400.0,20.4,8.5
2020,São Domingos do Norte - ES,ES,3204658,-19.1452,-40.6281,2400.0,10.8,4.5
2020,São Gabriel da Palha - ES,ES,3204708,-19.0182,-40.5365,2400.0,19.154,7.981
2020,São José do Calçado - ES,ES,3204807,-21.0274,-41.6636,1477.0,2.43,1.645
2020,São Mateus - ES,ES,3204906,-18.7214,-39.8579,2100.0,26.859,12.79
2020,São Roque do Canaã - ES,ES,3204955,-19.7411,-40.6526,3346.0,11.88,3.55
2020,Vargem Alta - ES,ES,3205036,-20.669,-41.0179,1323.0,7.444,5.625
2020,Venda Nova do Imigrante - ES,ES,3205069,-20.327,-41.1355,1452.0,4.356,3.0
2020,Viana - ES,ES,3205101,-20.3825,-40.4933,1709.0,0.863,0.505
2020,Vila Pavão - ES,ES,3205150,-18.6091,-40.609,2295.0,8.606,3.75
2020,Vila Valério - ES,ES,3205176,-18.9958,-40.3849,2280.0,31.92,14.0
2020,Vila Velha - ES,ES,3205200,-20.3417,-40.2875,0.0,0.0,0.0
2020,Vitória - ES,ES,3205309,-20.3155,-40.3128,0.0,0.0,0.0
2020,Água Doce do Norte - ES,ES,3200169,-18.5482,-40.9854,2318.0,5.226,2.255
2020,Águia Branca - ES,ES,3200136,-18.9846,-40.7437,2268.0,13.537,5.97
2020,Abadia dos Dourados - MG,MG,3100104,-18.4831,-47.3916,2584.0,0.491,0.19
2020,Abaeté - MG,MG,3100203,-19.1551,-45.4444,3600.0,0.216,0.06
2020,Abre Campo - MG,MG,3100302,-20.2996,-42.4743,1500.0,5.55,3.7
2020,Acaiaca - MG,MG,3100401,-20.359,-43.1439,1500.0,0.006,0.004
2020,Aguanil - MG,MG,3100807,-20.9439,-45.3915,2164.0,2.316,1.07
2020,Aimorés - MG,MG,3101102,-19.5007,-41.0746,2612.0,3.395,1.3
2020,Aiuruoca - MG,MG,3101201,-21.9736,-44.6042,1800.0,0.018,0.01
2020,Alagoa - MG,MG,3101300,-22.171,-44.6413,0.0,0.0,0.0
2020,Albertina - MG,MG,3101409,-22.2018,-46.6139,1680.0,2.52,1.5
2020,Alfenas - MG,MG,3101607,-21.4256,-45.9477,2364.0,21.75,9.2
2020,Alfredo Vasconcelos - MG,MG,3101631,-21.1535,-43.7718,0.0,0.0,0.0
2020,Almenara - MG,MG,3101706,-16.1785,-40.6942,763.0,0.061,0.08
2020,Alpercata - MG,MG,3101805,-18.974,-41.97,0.0,0.0,0.0
2020,Alpinópolis - MG,MG,3101904,-20.8631,-46.3878,2766.0,14.35,5.188
2020,Alterosa - MG,MG,3102001,-21.2488,-46.1387,1980.0,8.425,4.255
2020,Alto Caparaó - MG,MG,3102050,-20.431,-41.8738,1920.0,6.144,3.2
2020,Alto Jequitibá - MG,MG,3153509,-20.4208,-41.967,1800.0,9.9,5.5
2020,Alto Rio Doce - MG,MG,3102100,-21.0281,-43.4067,0.0,0.0,0.0
2020,Alvarenga - MG,MG,3102209,-19.4174,-41.7317,914.0,0.882,0.965
2020,Alvinópolis - MG,MG,3102308,-20.1098,-43.0535,1111.0,0.01,0.009
2020,Alvorada de Minas - MG,MG,3102407,-18.7334,-43.3638,1333.0,0.004,0.003
2020,Além Paraíba - MG,MG,3101508,-21.8797,-42.7176,0.0,0.0,0.0
2020,Amparo do Serra - MG,MG,3102506,-20.5051,-42.8009,1439.0,0.367,0.255
2020,Andradas - MG,MG,3102605,-22.0695,-46.5724,2568.0,17.976,7.0
2020,Andrelândia - MG,MG,3102803,-21.7411,-44.3117,1800.0,0.576,0.32
2020,Angelândia - MG,MG,3102852,-17.7279,-42.2641,1840.0,6.315,3.432
2020,Antônio Carlos - MG,MG,3102902,-21.321,-43.7451,0.0,0.0,0.0
2020,Antônio Dias - MG,MG,3103009,-19.6491,-42.8732,1333.0,0.008,0.006
2020,Antônio Prado de Minas - MG,MG,3103108,-21.0192,-42.1109,1553.0,0.118,0.076
2020,Aracitaba - MG,MG,3103306,-21.3446,-43.3736,0.0,0.0,0.0
2020,Araguari - MG,MG,3103504,-18.6456,-48.1934,1980.0,22.433,11.33
2020,Arantina - MG,MG,3103603,-21.9102,-44.2555,0.0,0.0,0.0
2020,Araponga - MG,MG,3103702,-20.6686,-42.5178,1800.0,8.784,4.88
2020,Araporã - MG,MG,3103751,-18.4357,-49.1847,0.0,0.0,0.0
2020,Arapuá - MG,MG,3103801,-19.0268,-46.1484,1500.0,1.125,0.75
2020,Araxá - MG,MG,3104007,-19.5902,-46.9438,1786.0,6.076,3.402
2020,Araçaí - MG,MG,3103207,-19.1955,-44.2493,0.0,0.0,0.0
2020,Araçuaí - MG,MG,3103405,-16.8523,-42.0637,667.0,0.004,0.006
2020,Araújos - MG,MG,3103900,-19.9405,-45.1671,0.0,0.0,0.0
2020,Arceburgo - MG,MG,3104106,-21.359,-46.9401,1839.0,2.85,1.55
2020,Arcos - MG,MG,3104205,-20.2863,-45.5373,0.0,0.0,0.0
2020,Areado - MG,MG,3104304,-21.3572,-46.1421,2079.0,5.174,2.489
2020,Argirita - MG,MG,3104403,-21.6083,-42.8292,0.0,0.0,0.0
2020,Aricanduva - MG,MG,3104452,-17.8666,-42.5533,1320.0,0.739,0.56
2020,Arinos - MG,MG,3104502,-15.9187,-46.1043,0.0,0.0,0.0
2020,Astolfo Dutra - MG,MG,3104601,-21.3184,-42.8572,1750.0,0.014,0.008
2020,Ataléia - MG,MG,3104700,-18.0438,-41.1149,1318.0,0.112,0.085
2020,Augusto de Lima - MG,MG,3104809,-18.0997,-44.2655,0.0,0.0,0.0
2020,Açucena - MG,MG,3100500,-19.0671,-42.5419,1167.0,0.014,0.012
2020,Baependi - MG,MG,3104908,-21.957,-44.8874,1679.0,1.572,0.936
2020,Baldim - MG,MG,3105004,-19.2832,-43.9613,0.0,0.0,0.0
2020,Bambuí - MG,MG,3105103,-20.0166,-45.9754,1800.0,6.152,3.418
2020,Bandeira - MG,MG,3105202,-15.8783,-40.5622,1083.0,0.065,0.06
2020,Bandeira do Sul - MG,MG,3105301,-21.7308,-46.3833,1500.0,0.513,0.342
2020,Barbacena - MG,MG,3105608,-21.2214,-43.7703,0.0,0.0,0.0
2020,Barra Longa - MG,MG,3105707,-20.2869,-43.0402,0.0,0.0,0.0
2020,Barroso - MG,MG,3105905,-21.1907,-43.972,0.0,0.0,0.0
2020,Barão de Cocais - MG,MG,3105400,-19.9389,-43.4755,2500.0,0.005,0.002
2020,Barão do Monte Alto - MG,MG,3105509,-21.2444,-42.2372,0.0,0.0,0.0
2020,Bela Vista de Minas - MG,MG,3106002,-19.8302,-43.0922,0.0,0.0,0.0
2020,Belmiro Braga - MG,MG,3106101,-21.944,-43.4084,0.0,0.0,0.0
2020,Belo Horizonte - MG,MG,3106200,-19.9102,-43.9266,0.0,0.0,0.0
2020,Belo Oriente - MG,MG,3106309,-19.2199,-42.4828,0.0,0.0,0.0
2020,Belo Vale - MG,MG,3106408,-20.4077,-44.0275,0.0,0.0,0.0
2020,Berilo - MG,MG,3106507,-16.9567,-42.4606,843.0,0.059,0.07
2020,Berizal - MG,MG,3106655,-15.61,-41.7432,3340.0,1.129,0.338
2020,Bertópolis - MG,MG,3106606,-17.059,-40.58,1333.0,0.004,0.003
2020,Betim - MG,MG,3106705,-19.9668,-44.2008,0.0,0.0,0.0
2020,Bias Fortes - MG,MG,3106804,-21.602,-43.7574,0.0,0.0,0.0
2020,Bicas - MG,MG,3106903,-21.7232,-43.056,0.0,0.0,0.0
2020,Biquinhas - MG,MG,3107000,-18.7754,-45.4974,2333.0,0.014,0.006
2020,Boa Esperança - MG,MG,3107109,-21.0927,-45.5612,2063.0,32.393,15.7
2020,Bocaina de Minas - MG,MG,3107208,-22.1697,-44.3972,0.0,0.0,0.0
2020,Bocaiúva - MG,MG,3107307,-17.1135,-43.8104,1623.0,0.198,0.122
2020,Bom Despacho - MG,MG,3107406,-19.7386,-45.2622,0.0,0.0,0.0
2020,Bom Jardim de Minas - MG,MG,3107505,-21.9479,-44.1885,0.0,0.0,0.0
2020,Bom Jesus da Penha - MG,MG,3107604,-21.0148,-46.5174,1986.0,7.138,3.594
2020,Bom Jesus do Amparo - MG,MG,3107703,-19.7054,-43.4782,1500.0,0.009,0.006
2020,Bom Jesus do Galho - MG,MG,3107802,-19.836,-42.3165,1440.0,2.16,1.5
2020,Bom Repouso - MG,MG,3107901,-22.4675,-46.144,1800.0,0.045,0.025
2020,Bom Sucesso - MG,MG,3108008,-21.0329,-44.7537,2100.0,5.943,2.83
2020,Bonfim - MG,MG,3108107,-20.3302,-44.2366,0.0,0.0,0.0
2020,Bonfinópolis de Minas - MG,MG,3108206,-16.568,-45.9839,3300.0,2.574,0.78
2020,Bonito de Minas - MG,MG,3108255,-15.3231,-44.7543,0.0,0.0,0.0
2020,Borda da Mata - MG,MG,3108305,-22.2707,-46.1653,1620.0,0.891,0.55
2020,Botelhos - MG,MG,3108404,-21.6412,-46.391,1716.0,12.692,7.396
2020,Botumirim - MG,MG,3108503,-16.8657,-43.0086,920.0,0.023,0.025
2020,Brasilândia de Minas - MG,MG,3108552,-16.9999,-46.0081,0.0,0.0,0.0
2020,Brasília de Minas - MG,MG,3108602,-16.2104,-44.4299,0.0,0.0,0.0
2020,Brazópolis - MG,MG,3108909,-22.4743,-45.6166,1680.0,0.82,0.488
2020,Braúnas - MG,MG,3108800,-19.0562,-42.7099,882.0,0.015,0.017
2020,Brumadinho - MG,MG,3109006,-20.151,-44.2007,0.0,0.0,0.0
2020,Brás Pires - MG,MG,3108701,-20.8419,-43.2406,0.0,0.0,0.0
2020,Bueno Brandão - MG,MG,3109105,-22.4383,-46.3491,1800.0,3.6,2.0
2020,Buenópolis - MG,MG,3109204,-17.8744,-44.1775,0.0,0.0,0.0
2020,Bugre - MG,MG,3109253,-19.4231,-42.2552,0.0,0.0,0.0
2020,Buritis - MG,MG,3109303,-15.6218,-46.4221,3300.0,2.31,0.7
2020,Buritizeiro - MG,MG,3109402,-17.3656,-44.9606,3000.0,4.356,1.452
2020,Cabeceira Grande - MG,MG,3109451,-16.0335,-47.0862,0.0,0.0,0.0
2020,Cabo Verde - MG,MG,3109501,-21.4699,-46.3919,2249.0,18.991,8.444
2020,Cachoeira Dourada - MG,MG,3109808,-18.5161,-49.5039,0.0,0.0,0.0
2020,Cachoeira da Prata - MG,MG,3109600,-19.521,-44.4544,0.0,0.0,0.0
2020,Cachoeira de Minas - MG,MG,3109709,-22.3511,-45.7809,1860.0,2.213,1.19
2020,Cachoeira de Pajeú - MG,MG,3102704,-15.9688,-41.4948,917.0,0.011,0.012
2020,Caetanópolis - MG,MG,3109907,-19.2971,-44.4189,0.0,0.0,0.0
2020,Caeté - MG,MG,3110004,-19.8826,-43.6704,1200.0,0.024,0.02
2020,Caiana - MG,MG,3110103,-20.6956,-41.9292,1500.0,6.015,4.01
2020,Cajuri - MG,MG,3110202,-20.7903,-42.7925,1800.0,1.314,0.73
2020,Caldas - MG,MG,3110301,-21.9183,-46.3843,1680.0,1.848,1.1
2020,Camacho - MG,MG,3110400,-20.6294,-45.1593,2100.0,2.94,1.4
2020,Camanducaia - MG,MG,3110509,-22.7515,-46.1494,0.0,0.0,0.0
2020,Cambuquira - MG,MG,3110707,-21.854,-45.2896,1800.0,4.954,2.752
2020,Cambuí - MG,MG,3110608,-22.6115,-46.0572,1250.0,0.01,0.008
2020,Campanha - MG,MG,3110905,-21.836,-45.4004,1683.0,7.045,4.185
2020,Campanário - MG,MG,3110806,-18.2427,-41.7355,0.0,0.0,0.0
2020,Campestre - MG,MG,3111002,-21.7079,-46.2381,2138.0,22.201,10.384
2020,Campina Verde - MG,MG,3111101,-19.5382,-49.4862,0.0,0.0,0.0
2020,Campo Azul - MG,MG,3111150,-16.5028,-44.8096,0.0,0.0,0.0
2020,Campo Belo - MG,MG,3111200,-20.8932,-45.2699,1800.0,3.6,2.0
2020,Campo Florido - MG,MG,3111408,-19.7631,-48.5716,0.0,0.0,0.0
2020,Campo do Meio - MG,MG,3111309,-21.1127,-45.8273,2400.0,8.4,3.5
2020,Campos Altos - MG,MG,3111507,-19.6914,-46.1725,2100.0,19.814,9.435
2020,Campos Gerais - MG,MG,3111606,-21.237,-45.7569,2691.0,59.275,22.03
2020,Cana Verde - MG,MG,3111903,-21.0232,-45.1801,1500.0,1.14,0.76
2020,Canaã - MG,MG,3111705,-20.6869,-42.6167,1800.0,2.43,1.35
2020,Candeias - MG,MG,3112000,-20.7692,-45.2765,1860.0,11.221,6.033
2020,Cantagalo - MG,MG,3112059,-18.5248,-42.6223,0.0,0.0,0.0
2020,Canápolis - MG,MG,3111804,-18.7212,-49.2035,0.0,0.0,0.0
2020,Caparaó - MG,MG,3112109,-20.5289,-41.9061,1920.0,9.619,5.01
2020,Capela Nova - MG,MG,3112208,-20.9179,-43.622,1800.0,0.504,0.28
2020,Capelinha - MG,MG,3112307,-17.6888,-42.5147,1434.0,9.078,6.33
2020,Capetinga - MG,MG,3112406,-20.6163,-47.0571,2214.0,12.922,5.837
2020,Capim Branco - MG,MG,3112505,-19.5471,-44.1304,0.0,0.0,0.0
2020,Capinópolis - MG,MG,3112604,-18.6862,-49.5706,0.0,0.0,0.0
2020,Capitão Andrade - MG,MG,3112653,-19.0748,-41.8614,0.0,0.0,0.0
2020,Capitão Enéas - MG,MG,3112703,-16.3265,-43.7084,3000.0,0.042,0.014
2020,Capitólio - MG,MG,3112802,-20.6164,-46.0493,2100.0,3.675,1.75
2020,Caputira - MG,MG,3112901,-20.1703,-42.2683,1800.0,8.586,4.77
2020,Caranaíba - MG,MG,3113107,-20.8707,-43.7417,1645.0,0.051,0.031
2020,Carandaí - MG,MG,3113206,-20.9566,-43.811,1125.0,0.009,0.008
2020,Carangola - MG,MG,3113305,-20.7343,-42.0313,1500.0,6.0,4.0
2020,Caratinga - MG,MG,3113404,-19.7868,-42.1292,2040.0,18.452,9.045
2020,Caraí - MG,MG,3113008,-17.1862,-41.7004,1523.0,0.609,0.4
2020,Carbonita - MG,MG,3113503,-17.5255,-43.0137,0.0,0.0,0.0
2020,Careaçu - MG,MG,3113602,-22.0424,-45.696,1320.0,1.162,0.88
2020,Carlos Chagas - MG,MG,3113701,-17.6973,-40.7723,0.0,0.0,0.0
2020,Carmo da Cachoeira - MG,MG,3113909,-21.4633,-45.2201,1800.0,19.8,11.0
2020,Carmo da Mata - MG,MG,3114006,-20.5575,-44.8735,1680.0,1.428,0.85
2020,Carmo de Minas - MG,MG,3114105,-22.1204,-45.1307,1740.0,6.264,3.6
2020,Carmo do Cajuru - MG,MG,3114204,-20.1912,-44.7664,0.0,0.0,0.0
2020,Carmo do Paranaíba - MG,MG,3114303,-18.991,-46.3167,1947.0,22.805,11.71
2020,Carmo do Rio Claro - MG,MG,3114402,-20.9736,-46.1149,2785.0,27.263,9.79
2020,Carmésia - MG,MG,3113800,-19.0877,-43.1382,0.0,0.0,0.0
2020,Carmópolis de Minas - MG,MG,3114501,-20.5396,-44.6336,1982.0,0.218,0.11
2020,Carneirinho - MG,MG,3114550,-19.6987,-50.6894,0.0,0.0,0.0
2020,Carrancas - MG,MG,3114600,-21.4898,-44.6446,1786.0,0.05,0.028
2020,Carvalhos - MG,MG,3114808,-22.0,-44.4632,0.0,0.0,0.0
2020,Carvalhópolis - MG,MG,3114709,-21.7735,-45.8421,1680.0,2.864,1.705
2020,Casa Grande - MG,MG,3114907,-20.7925,-43.9343,1554.0,0.101,0.065
2020,Cascalho Rico - MG,MG,3115003,-18.5772,-47.8716,2479.0,1.326,0.535
2020,Cataguases - MG,MG,3115300,-21.3924,-42.6896,1250.0,0.005,0.004
2020,Catas Altas - MG,MG,3115359,-20.0734,-43.4061,1333.0,0.008,0.006
2020,Catas Altas da Noruega - MG,MG,3115409,-20.6901,-43.4939,1000.0,0.008,0.008
2020,Catuji - MG,MG,3115458,-17.3018,-41.5276,1197.0,0.085,0.071
2020,Catuti - MG,MG,3115474,-15.3616,-42.9627,0.0,0.0,0.0
2020,Caxambu - MG,MG,3115508,-21.9753,-44.9319,1327.0,0.13,0.098
2020,Cedro do Abaeté - MG,MG,3115607,-19.1458,-45.712,0.0,0.0,0.0
2020,Central de Minas - MG,MG,3115706,-18.7612,-41.3143,667.0,0.006,0.009
2020,Centralina - MG,MG,3115805,-18.5852,-49.2014,0.0,0.0,0.0
2020,Chalé - MG,MG,3116001,-20.0453,-41.6897,1708.0,4.431,2.595
2020,Chapada Gaúcha - MG,MG,3116159,-15.3014,-45.6116,0.0,0.0,0.0
2020,Chapada do Norte - MG,MG,3116100,-17.0881,-42.5392,1000.0,0.003,0.003
2020,Chiador - MG,MG,3116209,-21.9996,-43.0617,0.0,0.0,0.0
2020,Chácara - MG,MG,3115904,-21.6733,-43.215,1500.0,0.003,0.002
2020,Cipotânea - MG,MG,3116308,-20.9026,-43.3629,0.0,0.0,0.0
2020,Claraval - MG,MG,3116407,-20.397,-47.2768,2796.0,10.787,3.858
2020,Claro dos Poções - MG,MG,3116506,-17.082,-44.2061,800.0,0.004,0.005
2020,Cláudio - MG,MG,3116605,-20.4437,-44.7673,2760.0,0.759,0.275
2020,Coimbra - MG,MG,3116704,-20.8535,-42.8008,1800.0,0.846,0.47
2020,Coluna - MG,MG,3116803,-18.2311,-42.8352,700.0,0.007,0.01
2020,Comendador Gomes - MG,MG,3116902,-19.6973,-49.0789,0.0,0.0,0.0
2020,Comercinho - MG,MG,3117009,-16.2963,-41.7945,625.0,0.005,0.008
2020,Conceição da Aparecida - MG,MG,3117108,-21.096,-46.2049,2244.0,16.502,7.354
2020,Conceição da Barra de Minas - MG,MG,3115201,-21.1316,-44.4729,1911.0,0.623,0.326
2020,Conceição das Alagoas - MG,MG,3117306,-19.9172,-48.3839,3125.0,0.05,0.016
2020,Conceição das Pedras - MG,MG,3117207,-22.1576,-45.4562,1740.0,2.676,1.538
2020,Conceição de Ipanema - MG,MG,3117405,-19.9326,-41.6908,1563.0,1.574,1.007
2020,Conceição do Mato Dentro - MG,MG,3117504,-19.0344,-43.4221,1316.0,0.025,0.019
2020,Conceição do Pará - MG,MG,3117603,-19.7456,-44.8945,0.0,0.0,0.0
2020,Conceição do Rio Verde - MG,MG,3117702,-21.8778,-45.087,1800.0,7.65,4.25
2020,Conceição dos Ouros - MG,MG,3117801,-22.4078,-45.7996,1503.0,0.263,0.175
2020,Confins - MG,MG,3117876,-19.6282,-43.9931,0.0,0.0,0.0
2020,Congonhal - MG,MG,3117900,-22.1488,-46.043,1619.0,0.502,0.31
2020,Congonhas - MG,MG,3118007,-20.4958,-43.851,1333.0,0.02,0.015
2020,Congonhas do Norte - MG,MG,3118106,-18.8021,-43.6767,1200.0,0.048,0.04
2020,Conquista - MG,MG,3118205,-19.9312,-47.5492,0.0,0.0,0.0
2020,Conselheiro Lafaiete - MG,MG,3118304,-20.6634,-43.7846,0.0,0.0,0.0
2020,Conselheiro Pena - MG,MG,3118403,-19.1789,-41.4736,1594.0,3.968,2.49
2020,Consolação - MG,MG,3118502,-22.5493,-45.9255,1200.0,0.006,0.005
2020,Contagem - MG,MG,3118601,-19.9321,-44.0539,0.0,0.0,0.0
2020,Coqueiral - MG,MG,3118700,-21.1858,-45.4366,2160.0,15.293,7.08
2020,Coração de Jesus - MG,MG,3118809,-16.6841,-44.3635,0.0,0.0,0.0
2020,Cordisburgo - MG,MG,3118908,-19.1224,-44.3224,0.0,0.0,0.0
2020,Cordislândia - MG,MG,3119005,-21.7891,-45.6999,1620.0,2.835,1.75
2020,Corinto - MG,MG,3119104,-18.369,-44.4542,0.0,0.0,0.0
2020,Coroaci - MG,MG,3119203,-18.6156,-42.2791,1726.0,0.202,0.117
2020,Coromandel - MG,MG,3119302,-18.4734,-47.1933,1819.0,16.043,8.82
2020,Coronel Fabriciano - MG,MG,3119401,-19.5179,-42.6276,0.0,0.0,0.0
2020,Coronel Murta - MG,MG,3119500,-16.6148,-42.184,0.0,0.0,0.0
2020,Coronel Pacheco - MG,MG,3119609,-21.5898,-43.256,0.0,0.0,0.0
2020,Coronel Xavier Chaves - MG,MG,3119708,-21.0277,-44.2206,0.0,0.0,0.0
2020,Couto de Magalhães de Minas - MG,MG,3120102,-18.0727,-43.4648,1500.0,0.003,0.002
2020,Cristais - MG,MG,3120201,-20.8733,-45.5167,1920.0,9.216,4.8
2020,Cristiano Otoni - MG,MG,3120409,-20.8324,-43.8166,0.0,0.0,0.0
2020,Cristina - MG,MG,3120508,-22.208,-45.2673,2100.0,1.592,0.758
2020,Cristália - MG,MG,3120300,-16.716,-42.8571,1429.0,0.01,0.007
2020,Crisólita - MG,MG,3120151,-17.2381,-40.9184,0.0,0.0,0.0
2020,Crucilândia - MG,MG,3120607,-20.3923,-44.3334,0.0,0.0,0.0
2020,Cruzeiro da Fortaleza - MG,MG,3120706,-18.944,-46.6669,2100.0,2.016,0.96
2020,Cruzília - MG,MG,3120805,-21.84,-44.8067,1200.0,0.216,0.18
2020,Cuparaque - MG,MG,3120839,-18.9648,-41.0986,1047.0,0.334,0.319
2020,Curral de Dentro - MG,MG,3120870,-15.9327,-41.8557,889.0,0.016,0.018
2020,Curvelo - MG,MG,3120904,-18.7527,-44.4303,0.0,0.0,0.0
2020,Cássia - MG,MG,3115102,-20.5831,-46.9201,2168.0,11.49,5.3
2020,Córrego Danta - MG,MG,3119807,-19.8198,-45.9032,1800.0,3.006,1.67
2020,Córrego Fundo - MG,MG,3119955,-20.4474,-45.5617,1500.0,0.375,0.25
2020,Córrego Novo - MG,MG,3120003,-19.8361,-42.3988,1255.0,0.069,0.055
2020,Córrego do Bom Jesus - MG,MG,3119906,-22.6269,-46.0241,0.0,0.0,0.0
2020,Cônego Marinho - MG,MG,3117836,-15.2892,-44.4181,0.0,0.0,0.0
2020,Datas - MG,MG,3121001,-18.4478,-43.6591,2000.0,0.002,0.001
2020,Delfim Moreira - MG,MG,3121100,-22.5036,-45.2792,0.0,0.0,0.0
2020,Delfinópolis - MG,MG,3121209,-20.3468,-46.8456,1800.0,0.45,0.25
2020,Delta - MG,MG,3121258,-19.9721,-47.7841,0.0,0.0,0.0
2020,Descoberto - MG,MG,3121308,-21.46,-42.9618,1500.0,0.003,0.002
2020,Desterro de Entre Rios - MG,MG,3121407,-20.665,-44.3334,2400.0,0.288,0.12
2020,Desterro do Melo - MG,MG,3121506,-21.143,-43.5178,1500.0,0.003,0.002
2020,Diamantina - MG,MG,3121605,-18.2413,-43.6031,2345.0,1.168,0.498
2020,Diogo de Vasconcelos - MG,MG,3121704,-20.4879,-43.1953,0.0,0.0,0.0
2020,Dionísio - MG,MG,3121803,-19.8433,-42.7701,1000.0,0.006,0.006
2020,Divino - MG,MG,3122009,-20.6134,-42.1438,1800.0,14.881,8.267
2020,Divino das Laranjeiras - MG,MG,3122108,-18.7755,-41.4781,667.0,0.006,0.009
2020,Divinolândia de Minas - MG,MG,3122207,-18.8004,-42.6103,1800.0,0.045,0.025
2020,Divinésia - MG,MG,3121902,-20.9917,-43.0003,2100.0,0.252,0.12
2020,Divinópolis - MG,MG,3122306,-20.1446,-44.8912,0.0,0.0,0.0
2020,Divisa Alegre - MG,MG,3122355,-15.7221,-41.3463,900.0,0.036,0.04
2020,Divisa Nova - MG,MG,3122405,-21.5092,-46.1904,1800.0,3.564,1.98
2020,Divisópolis - MG,MG,3122454,-15.7254,-40.9997,1340.0,1.091,0.814
2020,Dom Bosco - MG,MG,3122470,-16.652,-46.2597,0.0,0.0,0.0
2020,Dom Cavati - MG,MG,3122504,-19.3735,-42.1121,789.0,0.03,0.038
2020,Dom Joaquim - MG,MG,3122603,-18.961,-43.2544,0.0,0.0,0.0
2020,Dom Silvério - MG,MG,3122702,-20.1627,-42.9627,900.0,0.009,0.01
2020,Dom Viçoso - MG,MG,3122801,-22.2511,-45.1643,1429.0,0.5,0.35
2020,Dona Euzébia - MG,MG,3122900,-21.319,-42.807,0.0,0.0,0.0
2020,Dores de Campos - MG,MG,3123007,-21.1139,-44.0207,0.0,0.0,0.0
2020,Dores de Guanhães - MG,MG,3123106,-19.0516,-42.9254,0.0,0.0,0.0
2020,Dores do Indaiá - MG,MG,3123205,-19.4628,-45.5927,0.0,0.0,0.0
2020,Dores do Turvo - MG,MG,3123304,-20.9785,-43.1834,1625.0,0.13,0.08
2020,Doresópolis - MG,MG,3123403,-20.2868,-45.9007,1800.0,0.45,0.25
2020,Douradoquara - MG,MG,3123502,-18.4338,-47.5993,0.0,0.0,0.0
2020,Durandé - MG,MG,3123528,-20.2058,-41.7977,2400.0,13.2,5.5
2020,Elói Mendes - MG,MG,3123601,-21.6088,-45.5691,2109.0,20.448,9.695
2020,Engenheiro Caldas - MG,MG,3123700,-19.2065,-42.0503,0.0,0.0,0.0
2020,Engenheiro Navarro - MG,MG,3123809,-17.2831,-43.947,750.0,0.003,0.004
2020,Entre Folhas - MG,MG,3123858,-19.6218,-42.2306,1260.0,0.542,0.43
2020,Entre Rios de Minas - MG,MG,3123908,-20.6706,-44.0654,1800.0,0.216,0.12
2020,Ervália - MG,MG,3124005,-20.8403,-42.6544,1800.0,9.331,5.184
2020,Esmeraldas - MG,MG,3124104,-19.764,-44.3065,2096.0,0.109,0.052
2020,Espera Feliz - MG,MG,3124203,-20.6508,-41.9119,2040.0,18.36,9.0
2020,Espinosa - MG,MG,3124302,-14.9249,-42.809,0.0,0.0,0.0
2020,Espírito Santo do Dourado - MG,MG,3124401,-22.0454,-45.9548,1619.0,0.761,0.47
2020,Estiva - MG,MG,3124500,-22.4577,-46.0191,2000.0,0.006,0.003
2020,Estrela Dalva - MG,MG,3124609,-21.7412,-42.4574,2200.0,0.154,0.07
2020,Estrela do Indaiá - MG,MG,3124708,-19.5169,-45.7859,1800.0,0.36,0.2
2020,Estrela do Sul - MG,MG,3124807,-18.7399,-47.6956,2063.0,3.816,1.85
2020,Eugenópolis - MG,MG,3124906,-21.1002,-42.1878,1804.0,3.014,1.671
2020,Ewbank da Câmara - MG,MG,3125002,-21.5498,-43.5068,0.0,0.0,0.0
2020,Extrema - MG,MG,3125101,-22.854,-46.3178,2500.0,0.005,0.002
2020,Fama - MG,MG,3125200,-21.4089,-45.8286,1800.0,2.16,1.2
2020,Faria Lemos - MG,MG,3125309,-20.8097,-42.0213,1440.0,0.929,0.645
2020,Felisburgo - MG,MG,3125606,-16.6348,-40.7605,1208.0,0.029,0.024
2020,Felixlândia - MG,MG,3125705,-18.7507,-44.9004,0.0,0.0,0.0
2020,Felício dos Santos - MG,MG,3125408,-18.0755,-43.2422,3549.0,1.054,0.297
2020,Fernandes Tourinho - MG,MG,3125804,-19.1541,-42.0803,0.0,0.0,0.0
2020,Ferros - MG,MG,3125903,-19.2343,-43.0192,1200.0,0.048,0.04
2020,Fervedouro - MG,MG,3125952,-20.726,-42.279,1500.0,6.45,4.3
2020,Florestal - MG,MG,3126000,-19.888,-44.4318,0.0,0.0,0.0
2020,Formiga - MG,MG,3126109,-20.4618,-45.4268,1442.0,3.864,2.68
2020,Formoso - MG,MG,3126208,-14.9446,-46.2371,3000.0,1.38,0.46
2020,Fortaleza de Minas - MG,MG,3126307,-20.8508,-46.712,1680.0,1.932,1.15
2020,Fortuna de Minas - MG,MG,3126406,-19.5578,-44.4472,0.0,0.0,0.0
2020,Francisco Badaró - MG,MG,3126505,-16.9883,-42.3568,0.0,0.0,0.0
2020,Francisco Dumont - MG,MG,3126604,-17.3107,-44.2317,0.0,0.0,0.0
2020,Francisco Sá - MG,MG,3126703,-16.4827,-43.4896,1000.0,0.003,0.003
2020,Franciscópolis - MG,MG,3126752,-17.9578,-42.0094,1800.0,0.108,0.06
2020,Frei Gaspar - MG,MG,3126802,-18.0709,-41.4325,1200.0,0.072,0.06
2020,Frei Inocêncio - MG,MG,3126901,-18.5556,-41.9121,0.0,0.0,0.0
2020,Frei Lagonegro - MG,MG,3126950,-18.1751,-42.7617,1500.0,0.012,0.008
2020,Fronteira - MG,MG,3127008,-20.2748,-49.1984,0.0,0.0,0.0
2020,Fronteira dos Vales - MG,MG,3127057,-16.8898,-40.923,0.0,0.0,0.0
2020,Fruta de Leite - MG,MG,3127073,-16.1225,-42.5288,625.0,0.005,0.008
2020,Frutal - MG,MG,3127107,-20.0259,-48.9355,0.0,0.0,0.0
2020,Funilândia - MG,MG,3127206,-19.3661,-44.061,0.0,0.0,0.0
2020,Galiléia - MG,MG,3127305,-19.0005,-41.5387,3600.0,0.036,0.01
2020,Gameleiras - MG,MG,3127339,-15.0829,-43.125,0.0,0.0,0.0
2020,Glaucilândia - MG,MG,3127354,-16.8481,-43.692,0.0,0.0,0.0
2020,Goiabeira - MG,MG,3127370,-18.9807,-41.2235,0.0,0.0,0.0
2020,Goianá - MG,MG,3127388,-21.536,-43.1957,500.0,0.001,0.002
2020,Gonzaga - MG,MG,3127503,-18.8196,-42.4769,1000.0,0.005,0.005
2020,Gonçalves - MG,MG,3127404,-22.6545,-45.8556,0.0,0.0,0.0
2020,Gouveia - MG,MG,3127602,-18.4519,-43.7423,0.0,0.0,0.0
2020,Governador Valadares - MG,MG,3127701,-18.8545,-41.9555,909.0,0.01,0.011
2020,Grupiara - MG,MG,3127909,-18.5003,-47.7318,0.0,0.0,0.0
2020,Grão Mogol - MG,MG,3127800,-16.5662,-42.8923,775.0,0.031,0.04
2020,Guanhães - MG,MG,3128006,-18.7713,-42.9312,1500.0,0.006,0.004
2020,Guapé - MG,MG,3128105,-20.7631,-45.9152,1848.0,16.983,9.19
2020,Guaraciaba - MG,MG,3128204,-20.5716,-43.0094,1200.0,0.18,0.15
2020,Guaraciama - MG,MG,3128253,-17.0142,-43.6675,0.0,0.0,0.0
2020,Guarani - MG,MG,3128402,-21.3563,-43.0328,1127.0,0.062,0.055
2020,Guaranésia - MG,MG,3128303,-21.3009,-46.7964,1565.0,5.636,3.602
2020,Guarará - MG,MG,3128501,-21.7304,-43.0334,1500.0,0.021,0.014
2020,Guarda-Mor - MG,MG,3128600,-17.7673,-47.0998,1799.0,0.637,0.354
2020,Guaxupé - MG,MG,3128709,-21.305,-46.7081,1740.0,8.526,4.9
2020,Guidoval - MG,MG,3128808,-21.155,-42.7887,0.0,0.0,0.0
2020,Guimarânia - MG,MG,3128907,-18.8425,-46.7901,2150.0,7.772,3.615
2020,Guiricema - MG,MG,3129004,-21.0098,-42.7207,2400.0,0.48,0.2
2020,Gurinhatã - MG,MG,3129103,-19.2143,-49.7876,0.0,0.0,0.013
2020,Heliodora - MG,MG,3129202,-22.0644,-45.5453,1800.0,5.841,3.245
2020,Iapu - MG,MG,3129301,-19.4387,-42.2147,1000.0,0.19,0.19
2020,Ibertioga - MG,MG,3129400,-21.433,-43.9639,0.0,0.0,0.0
2020,Ibiaí - MG,MG,3129608,-16.8591,-44.9046,3000.0,0.648,0.216
2020,Ibiracatu - MG,MG,3129657,-15.6605,-44.1667,0.0,0.0,0.0
2020,Ibiraci - MG,MG,3129707,-20.4611,-47.1222,2632.0,37.236,14.15
2020,Ibirité - MG,MG,3129806,-20.0252,-44.0569,0.0,0.0,0.0
2020,Ibitiúra de Minas - MG,MG,3129905,-22.0604,-46.4368,1680.0,2.436,1.45
2020,Ibituruna - MG,MG,3130002,-21.1541,-44.7479,1800.0,0.936,0.52
2020,Ibiá - MG,MG,3129509,-19.4749,-46.5474,1746.0,13.968,8.0
2020,Icaraí de Minas - MG,MG,3130051,-16.214,-44.9034,0.0,0.0,0.0
2020,Igarapé - MG,MG,3130101,-20.0707,-44.2994,1217.0,0.028,0.023
2020,Igaratinga - MG,MG,3130200,-19.9476,-44.7063,0.0,0.0,0.0
2020,Iguatama - MG,MG,3130309,-20.1776,-45.7111,0.0,0.0,0.0
2020,Ijaci - MG,MG,3130408,-21.1738,-44.9233,2458.0,0.762,0.31
2020,Ilicínea - MG,MG,3130507,-20.9402,-45.8308,2100.0,10.042,4.782
2020,Imbé de Minas - MG,MG,3130556,-19.6017,-41.9695,1440.0,4.694,3.26
2020,Inconfidentes - MG,MG,3130606,-22.3136,-46.3264,2460.0,5.043,2.05
2020,Indaiabira - MG,MG,3130655,-15.4911,-42.2005,3000.0,0.75,0.25
2020,Indianópolis - MG,MG,3130705,-19.0341,-47.9155,1800.0,6.507,3.615
2020,Ingaí - MG,MG,3130804,-21.4024,-44.9152,1679.0,0.806,0.48
2020,Inhapim - MG,MG,3130903,-19.5476,-42.1147,1800.0,6.192,3.44
2020,Inhaúma - MG,MG,3131000,-19.4898,-44.3934,0.0,0.0,0.0
2020,Inimutaba - MG,MG,3131109,-18.7271,-44.3584,0.0,0.0,0.0
2020,Ipaba - MG,MG,3131158,-19.4158,-42.4139,0.0,0.0,0.0
2020,Ipanema - MG,MG,3131208,-19.7992,-41.7164,1922.0,0.519,0.27
2020,Ipatinga - MG,MG,3131307,-19.4703,-42.5476,1077.0,0.014,0.013
2020,Ipiaçu - MG,MG,3131406,-18.6927,-49.9436,0.0,0.0,0.0
2020,Ipuiúna - MG,MG,3131505,-22.1013,-46.1915,0.0,0.0,0.0
2020,Iraí de Minas - MG,MG,3131604,-18.9819,-47.461,3360.0,2.738,0.815
2020,Itabira - MG,MG,3131703,-19.6239,-43.2312,800.0,0.004,0.005
2020,Itabirinha - MG,MG,3131802,-18.5712,-41.234,846.0,0.253,0.299
2020,Itabirito - MG,MG,3131901,-20.2501,-43.8038,0.0,0.0,0.0
2020,Itacambira - MG,MG,3132008,-17.0625,-43.3069,750.0,0.003,0.004
2020,Itacarambi - MG,MG,3132107,-15.089,-44.095,0.0,0.0,0.0
2020,Itaguara - MG,MG,3132206,-20.3947,-44.4875,0.0,0.0,0.0
2020,Itaipé - MG,MG,3132305,-17.4014,-41.6697,959.0,0.426,0.444
2020,Itajubá - MG,MG,3132404,-22.4225,-45.4598,1588.0,0.027,0.017
2020,Itamarandiba - MG,MG,3132503,-17.8552,-42.8561,1714.0,0.941,0.549
2020,Itamarati de Minas - MG,MG,3132602,-21.4179,-42.813,1200.0,0.12,0.1
2020,Itambacuri - MG,MG,3132701,-18.035,-41.683,1055.0,0.268,0.254
2020,Itambé do Mato Dentro - MG,MG,3132800,-19.4158,-43.3182,0.0,0.0,0.0
2020,Itamogi - MG,MG,3132909,-21.0758,-47.046,2400.0,19.522,8.134
2020,Itamonte - MG,MG,3133006,-22.2859,-44.868,0.0,0.0,0.0
2020,Itanhandu - MG,MG,3133105,-22.2942,-44.9382,0.0,0.0,0.0
2020,Itanhomi - MG,MG,3133204,-19.1736,-41.863,1260.0,0.378,0.3
2020,Itaobim - MG,MG,3133303,-16.5571,-41.5017,1000.0,0.001,0.001
2020,Itapagipe - MG,MG,3133402,-19.9062,-49.3781,0.0,0.0,0.0
2020,Itapecerica - MG,MG,3133501,-20.4704,-45.127,1800.0,0.774,0.43
2020,Itapeva - MG,MG,3133600,-22.7665,-46.2241,0.0,0.0,0.0
2020,Itatiaiuçu - MG,MG,3133709,-20.1983,-44.4211,0.0,0.0,0.0
2020,Itaverava - MG,MG,3133907,-20.6769,-43.6141,2000.0,0.002,0.001
2020,Itaú de Minas - MG,MG,3133758,-20.7375,-46.7525,1667.0,0.015,0.009
2020,Itaúna - MG,MG,3133808,-20.0818,-44.5801,0.0,0.0,0.0
2020,Itinga - MG,MG,3134004,-16.61,-41.7672,0.0,0.0,0.0
2020,Itueta - MG,MG,3134103,-19.3999,-41.1746,1560.0,1.703,1.092
2020,Ituiutaba - MG,MG,3134202,-18.9772,-49.4639,750.0,0.009,0.012
2020,Itumirim - MG,MG,3134301,-21.3171,-44.8724,2051.0,0.566,0.276
2020,Iturama - MG,MG,3134400,-19.7276,-50.1966,0.0,0.0,0.0
2020,Itutinga - MG,MG,3134509,-21.3,-44.6567,1800.0,0.216,0.12
2020,Jaboticatubas - MG,MG,3134608,-19.5119,-43.7373,0.0,0.0,0.0
2020,Jacinto - MG,MG,3134707,-16.1428,-40.295,0.0,0.0,0.0
2020,Jacutinga - MG,MG,3134905,-22.286,-46.6166,1800.0,6.678,3.71
2020,Jacuí - MG,MG,3134806,-21.0137,-46.7359,1680.0,5.88,3.5
2020,Jaguaraçu - MG,MG,3135001,-19.647,-42.7498,0.0,0.0,0.0
2020,Jampruca - MG,MG,3135076,-18.461,-41.809,0.0,0.0,0.0
2020,Janaúba - MG,MG,3135100,-15.8022,-43.3132,0.0,0.0,0.0
2020,Januária - MG,MG,3135209,-15.4802,-44.3639,0.0,0.0,0.0
2020,Japaraíba - MG,MG,3135308,-20.1442,-45.5015,0.0,0.0,0.0
2020,Japonvar - MG,MG,3135357,-15.9891,-44.2758,0.0,0.0,0.0
2020,Jaíba - MG,MG,3135050,-15.3432,-43.6688,2400.0,0.06,0.025
2020,Jeceaba - MG,MG,3135407,-20.5339,-43.9894,1500.0,0.003,0.002
2020,Jenipapo de Minas - MG,MG,3135456,-17.0831,-42.2589,0.0,0.0,0.0
2020,Jequeri - MG,MG,3135506,-20.4542,-42.6651,2100.0,5.04,2.4
2020,Jequitaí - MG,MG,3135605,-17.229,-44.4376,0.0,0.0,0.0
2020,Jequitibá - MG,MG,3135704,-19.2345,-44.0304,0.0,0.0,0.0
2020,Jequitinhonha - MG,MG,3135803,-16.4375,-41.0117,2400.0,0.144,0.06
2020,Jesuânia - MG,MG,3135902,-21.9887,-45.2911,1500.0,2.85,1.9
2020,Joanésia - MG,MG,3136108,-19.1729,-42.6775,0.0,0.0,0.0
2020,Joaquim Felício - MG,MG,3136405,-17.758,-44.1643,0.0,0.0,0.0
2020,Joaíma - MG,MG,3136009,-16.6522,-41.0229,1500.0,0.18,0.12
2020,Jordânia - MG,MG,3136504,-15.9009,-40.1841,0.0,0.0,0.0
2020,Josenópolis - MG,MG,3136579,-16.5417,-42.5151,0.0,0.0,0.0
2020,José Gonçalves de Minas - MG,MG,3136520,-16.9053,-42.6014,1500.0,0.27,0.18
2020,José Raydan - MG,MG,3136553,-18.2195,-42.4946,2500.0,0.04,0.016
2020,João Monlevade - MG,MG,3136207,-19.8126,-43.1735,0.0,0.0,0.0
2020,João Pinheiro - MG,MG,3136306,-17.7398,-46.1715,3000.0,6.78,2.26
2020,Juatuba - MG,MG,3136652,-19.9448,-44.3451,0.0,0.0,0.0
2020,Juiz de Fora - MG,MG,3136702,-21.7595,-43.3398,1222.0,0.011,0.009
2020,Juramento - MG,MG,3136801,-16.8473,-43.5865,0.0,0.0,0.0
2020,Juruaia - MG,MG,3136900,-21.2493,-46.5735,1920.0,9.6,5.0
2020,Juvenília - MG,MG,3136959,-14.2662,-44.1597,0.0,0.0,0.0
2020,Ladainha - MG,MG,3137007,-17.6279,-41.7488,1379.0,0.466,0.338
2020,Lagamar - MG,MG,3137106,-18.1759,-46.8063,2400.0,0.624,0.26
2020,Lagoa Dourada - MG,MG,3137403,-20.9139,-44.0797,2100.0,0.231,0.11
2020,Lagoa Formosa - MG,MG,3137502,-18.7715,-46.4012,2549.0,2.32,0.91
2020,Lagoa Grande - MG,MG,3137536,-17.8323,-46.5165,2400.0,0.336,0.14
2020,Lagoa Santa - MG,MG,3137601,-19.6397,-43.8932,0.0,0.0,0.0
2020,Lagoa da Prata - MG,MG,3137205,-20.0237,-45.5401,0.0,0.0,0.0
2020,Lagoa dos Patos - MG,MG,3137304,-16.978,-44.5754,0.0,0.0,0.0
2020,Lajinha - MG,MG,3137700,-20.1539,-41.6228,1920.0,17.194,8.955
2020,Lambari - MG,MG,3137809,-21.9671,-45.3498,1800.0,7.42,4.122
2020,Lamim - MG,MG,3137908,-20.79,-43.4706,2387.0,0.074,0.031
2020,Laranjal - MG,MG,3138005,-21.3715,-42.4732,0.0,0.0,0.0
2020,Lassance - MG,MG,3138104,-17.887,-44.5735,3000.0,1.29,0.43
2020,Lavras - MG,MG,3138203,-21.248,-45.0009,1800.0,9.0,5.0
2020,Leandro Ferreira - MG,MG,3138302,-19.7193,-45.0279,0.0,0.0,0.0
2020,Leme do Prado - MG,MG,3138351,-17.0793,-42.6936,1000.0,0.06,0.06
2020,Leopoldina - MG,MG,3138401,-21.5296,-42.6421,1636.0,0.072,0.044
2020,Liberdade - MG,MG,3138500,-22.0275,-44.3208,0.0,0.0,0.0
2020,Lima Duarte - MG,MG,3138609,-21.8386,-43.7934,0.0,0.0,0.0
2020,Limeira do Oeste - MG,MG,3138625,-19.5512,-50.5815,0.0,0.0,0.0
2020,Lontra - MG,MG,3138658,-15.9013,-44.306,0.0,0.0,0.0
2020,Luisburgo - MG,MG,3138674,-20.4468,-42.0976,2100.0,13.188,6.28
2020,Luislândia - MG,MG,3138682,-16.1095,-44.5886,0.0,0.0,0.0
2020,Luminárias - MG,MG,3138708,-21.5145,-44.9034,1860.0,3.59,1.93
2020,Luz - MG,MG,3138807,-19.7911,-45.6794,1440.0,0.216,0.15
2020,Machacalis - MG,MG,3138906,-17.0723,-40.7245,0.0,0.0,0.0
2020,Machado - MG,MG,3139003,-21.6778,-45.9219,2212.0,29.705,13.43
2020,Madre de Deus de Minas - MG,MG,3139102,-21.483,-44.3287,0.0,0.0,0.0
2020,Malacacheta - MG,MG,3139201,-17.8456,-42.0769,1800.0,0.504,0.28
2020,Mamonas - MG,MG,3139250,-15.0479,-42.9469,0.0,0.0,0.0
2020,Manga - MG,MG,3139300,-14.7529,-43.9391,0.0,0.0,0.0
2020,Manhuaçu - MG,MG,3139409,-20.2572,-42.028,1680.0,36.826,21.92
2020,Manhumirim - MG,MG,3139508,-20.3591,-41.9589,1680.0,8.82,5.25
2020,Mantena - MG,MG,3139607,-18.7761,-40.9874,910.0,1.91,2.1
2020,Mar de Espanha - MG,MG,3139805,-21.8707,-43.0062,1800.0,0.18,0.1
2020,Maravilhas - MG,MG,3139706,-19.5076,-44.6779,0.0,0.0,0.0
2020,Maria da Fé - MG,MG,3139904,-22.3044,-45.3773,1733.0,0.156,0.09
2020,Mariana - MG,MG,3140001,-20.3765,-43.414,1783.0,0.041,0.023
2020,Marilac - MG,MG,3140100,-18.5079,-42.0822,0.0,0.0,0.0
2020,Maripá de Minas - MG,MG,3140209,-21.6979,-42.9546,0.0,0.0,0.0
2020,Marliéria - MG,MG,3140308,-19.7096,-42.7327,1250.0,0.005,0.004
2020,Marmelópolis - MG,MG,3140407,-22.447,-45.1645,0.0,0.0,0.0
2020,Martinho Campos - MG,MG,3140506,-19.3306,-45.2434,0.0,0.0,0.0
2020,Martins Soares - MG,MG,3140530,-20.2546,-41.8786,1800.0,6.426,3.57
2020,Mata Verde - MG,MG,3140555,-15.6869,-40.7366,1320.0,0.677,0.513
2020,Materlândia - MG,MG,3140605,-18.4699,-43.0579,1000.0,0.001,0.001
2020,Mateus Leme - MG,MG,3140704,-19.9794,-44.4318,1214.0,0.034,0.028
2020,Mathias Lobato - MG,MG,3171501,-18.59,-41.9166,0.0,0.0,0.0
2020,Matias Barbosa - MG,MG,3140803,-21.869,-43.3135,0.0,0.0,0.0
2020,Matias Cardoso - MG,MG,3140852,-14.8563,-43.9146,3000.0,0.156,0.052
2020,Matipó - MG,MG,3140902,-20.2873,-42.3401,1560.0,7.488,4.8
2020,Mato Verde - MG,MG,3141009,-15.3944,-42.86,0.0,0.0,0.0
2020,Matozinhos - MG,MG,3141108,-19.5543,-44.0868,0.0,0.0,0.0
2020,Matutina - MG,MG,3141207,-19.2179,-45.9664,1830.0,0.452,0.247
2020,Medeiros - MG,MG,3141306,-19.9865,-46.2181,1980.0,6.97,3.52
2020,Medina - MG,MG,3141405,-16.2245,-41.4728,1000.0,0.007,0.007
2020,Mendes Pimentel - MG,MG,3141504,-18.6631,-41.4052,0.0,0.0,0.0
2020,Mercês - MG,MG,3141603,-21.1976,-43.3337,909.0,0.02,0.022
2020,Mesquita - MG,MG,3141702,-19.224,-42.6079,0.0,0.0,0.0
2020,Minas Novas - MG,MG,3141801,-17.2156,-42.5884,1000.0,0.4,0.4
2020,Minduri - MG,MG,3141900,-21.6797,-44.6051,500.0,0.001,0.002
2020,Mirabela - MG,MG,3142007,-16.256,-44.1602,0.0,0.0,0.0
2020,Miradouro - MG,MG,3142106,-20.8899,-42.3458,1500.0,3.15,2.1
2020,Miravânia - MG,MG,3142254,-14.7348,-44.4092,0.0,0.0,0.0
2020,Miraí - MG,MG,3142205,-21.2021,-42.6122,1501.0,0.653,0.435
2020,Moeda - MG,MG,3142304,-20.3399,-44.0509,1200.0,0.006,0.005
2020,Moema - MG,MG,3142403,-19.8387,-45.4127,0.0,0.0,0.0
2020,Monjolos - MG,MG,3142502,-18.3245,-44.118,0.0,0.0,0.0
2020,Monsenhor Paulo - MG,MG,3142601,-21.7579,-45.5391,2100.0,7.875,3.75
2020,Montalvânia - MG,MG,3142700,-14.4197,-44.3719,0.0,0.0,0.0
2020,Monte Alegre de Minas - MG,MG,3142809,-18.869,-48.881,3000.0,0.24,0.08
2020,Monte Azul - MG,MG,3142908,-15.1514,-42.8718,0.0,0.0,0.0
2020,Monte Belo - MG,MG,3143005,-21.3271,-46.3635,1800.0,6.66,3.7
2020,Monte Carmelo - MG,MG,3143104,-18.7302,-47.4912,1980.0,26.928,13.6
2020,Monte Formoso - MG,MG,3143153,-16.8691,-41.2473,600.0,0.024,0.04
2020,Monte Santo de Minas - MG,MG,3143203,-21.1873,-46.9753,2124.0,21.773,10.251
2020,Monte Sião - MG,MG,3143401,-22.4335,-46.573,1800.0,4.32,2.4
2020,Montes Claros - MG,MG,3143302,-16.7282,-43.8578,0.0,0.0,0.0
2020,Montezuma - MG,MG,3143450,-15.1702,-42.4941,0.0,0.0,0.0
2020,Morada Nova de Minas - MG,MG,3143500,-18.5998,-45.3584,0.0,0.0,0.0
2020,Morro da Garça - MG,MG,3143609,-18.5356,-44.601,0.0,0.0,0.0
2020,Morro do Pilar - MG,MG,3143708,-19.2236,-43.3795,0.0,0.0,0.0
2020,Munhoz - MG,MG,3143807,-22.6092,-46.362,1500.0,0.021,0.014
2020,Muriaé - MG,MG,3143906,-21.13,-42.3693,1563.0,1.282,0.82
2020,Mutum - MG,MG,3144003,-19.8121,-41.4407,1701.0,13.185,7.75
2020,Muzambinho - MG,MG,3144102,-21.3692,-46.5213,1764.0,13.507,7.657
2020,Mário Campos - MG,MG,3140159,-20.0582,-44.1883,0.0,0.0,0.0
2020,Nacip Raydan - MG,MG,3144201,-18.4544,-42.2481,0.0,0.0,0.0
2020,Nanuque - MG,MG,3144300,-17.8481,-40.3533,0.0,0.0,0.0
2020,Naque - MG,MG,3144359,-19.2291,-42.3312,0.0,0.0,0.0
2020,Natalândia - MG,MG,3144375,-16.5021,-46.4874,0.0,0.0,0.0
2020,Natércia - MG,MG,3144409,-22.1158,-45.5123,1440.0,3.571,2.48
2020,Nazareno - MG,MG,3144508,-21.2168,-44.6138,2100.0,4.137,1.97
2020,Nepomuceno - MG,MG,3144607,-21.2324,-45.235,1920.0,22.62,11.781
2020,Ninheira - MG,MG,3144656,-15.3148,-41.7564,3000.0,3.441,1.147
2020,Nova Belém - MG,MG,3144672,-18.4925,-41.1107,1152.0,6.22,5.4
2020,Nova Era - MG,MG,3144706,-19.7577,-43.0333,1565.0,0.036,0.023
2020,Nova Lima - MG,MG,3144805,-19.9758,-43.8509,2000.0,0.002,0.001
2020,Nova Módica - MG,MG,3144904,-18.4417,-41.4984,1300.0,0.013,0.01
2020,Nova Ponte - MG,MG,3145000,-19.1461,-47.6779,1859.0,0.66,0.355
2020,Nova Porteirinha - MG,MG,3145059,-15.7993,-43.2941,2000.0,0.002,0.001
2020,Nova Resende - MG,MG,3145109,-21.1286,-46.4157,2353.0,25.194,10.707
2020,Nova Serrana - MG,MG,3145208,-19.8713,-44.9847,0.0,0.0,0.0
2020,Nova União - MG,MG,3136603,-19.6876,-43.583,1526.0,0.029,0.019
2020,Novo Cruzeiro - MG,MG,3145307,-17.4654,-41.8826,1197.0,0.965,0.806
2020,Novo Oriente de Minas - MG,MG,3145356,-17.4089,-41.2194,0.0,0.0,0.0
2020,Novorizonte - MG,MG,3145372,-16.0162,-42.4044,1235.0,0.021,0.017
2020,Olaria - MG,MG,3145406,-21.8598,-43.9356,0.0,0.0,0.0
2020,Olhos-d'Água - MG,MG,3145455,-17.3982,-43.5719,0.0,0.0,0.0
2020,Oliveira - MG,MG,3145604,-20.6982,-44.829,1947.0,12.306,6.32
2020,Oliveira Fortes - MG,MG,3145703,-21.3401,-43.4499,0.0,0.0,0.0
2020,Olímpio Noronha - MG,MG,3145505,-22.0685,-45.2657,1560.0,1.204,0.772
2020,Onça de Pitangui - MG,MG,3145802,-19.7276,-44.8058,0.0,0.0,0.0
2020,Oratórios - MG,MG,3145851,-20.4298,-42.7977,0.0,0.0,0.0
2020,Orizânia - MG,MG,3145877,-20.5142,-42.1991,1680.0,6.854,4.08
2020,Ouro Branco - MG,MG,3145901,-20.5263,-43.6962,1083.0,0.013,0.012
2020,Ouro Fino - MG,MG,3146008,-22.2779,-46.3716,2100.0,10.508,5.004
2020,Ouro Preto - MG,MG,3146107,-20.3796,-43.512,2000.0,0.014,0.007
2020,Ouro Verde de Minas - MG,MG,3146206,-18.0719,-41.2734,2229.0,0.156,0.07
2020,Padre Carvalho - MG,MG,3146255,-16.3646,-42.5088,1500.0,0.003,0.002
2020,Padre Paraíso - MG,MG,3146305,-17.0758,-41.4821,722.0,0.148,0.205
2020,Pai Pedro - MG,MG,3146552,-15.5271,-43.07,0.0,0.0,0.0
2020,Paineiras - MG,MG,3146404,-18.8993,-45.5321,0.0,0.0,0.0
2020,Pains - MG,MG,3146503,-20.3705,-45.6627,1400.0,0.007,0.005
2020,Paiva - MG,MG,3146602,-21.2913,-43.4088,1667.0,0.005,0.003
2020,Palma - MG,MG,3146701,-21.3748,-42.3123,3304.0,0.304,0.092
2020,Palmópolis - MG,MG,3146750,-16.7364,-40.4296,0.0,0.0,0.0
2020,Papagaios - MG,MG,3146909,-19.4419,-44.7468,0.0,0.0,0.0
2020,Paracatu - MG,MG,3147006,-17.2252,-46.8711,2700.0,5.13,1.9
2020,Paraguaçu - MG,MG,3147204,-21.5465,-45.7374,2341.0,21.189,9.05
2020,Paraisópolis - MG,MG,3147303,-22.5539,-45.7803,2400.0,0.288,0.12
2020,Paraopeba - MG,MG,3147402,-19.2732,-44.4044,0.0,0.0,0.0
2020,Pará de Minas - MG,MG,3147105,-19.8534,-44.6114,0.0,0.0,0.0
2020,Passa Quatro - MG,MG,3147600,-22.3871,-44.9709,0.0,0.0,0.0
2020,Passa Tempo - MG,MG,3147709,-20.6539,-44.4926,1511.0,0.068,0.045
2020,Passa Vinte - MG,MG,3147808,-22.2097,-44.2344,0.0,0.0,0.0
2020,Passabém - MG,MG,3147501,-19.3509,-43.1383,0.0,0.0,0.0
2020,Passos - MG,MG,3147907,-20.7193,-46.609,1620.0,4.536,2.8
2020,Patis - MG,MG,3147956,-16.0773,-44.0787,3600.0,0.072,0.02
2020,Patos de Minas - MG,MG,3148004,-18.5699,-46.5013,1942.0,17.437,8.98
2020,Patrocínio - MG,MG,3148103,-18.9379,-46.9934,1748.0,76.204,43.595
2020,Patrocínio do Muriaé - MG,MG,3148202,-21.1544,-42.2125,0.0,0.0,0.0
2020,Paula Cândido - MG,MG,3148301,-20.8754,-42.9752,1620.0,2.268,1.4
2020,Paulistas - MG,MG,3148400,-18.4276,-42.8628,0.0,0.0,0.0
2020,Pavão - MG,MG,3148509,-17.4267,-41.0035,0.0,0.0,0.0
2020,Pedra Azul - MG,MG,3148707,-16.0086,-41.2909,1000.0,0.03,0.03
2020,Pedra Bonita - MG,MG,3148756,-20.5219,-42.3304,1740.0,7.047,4.05
2020,Pedra Dourada - MG,MG,3149002,-20.8266,-42.1515,1440.0,1.152,0.8
2020,Pedra do Anta - MG,MG,3148806,-20.5968,-42.7123,1500.0,0.33,0.22
2020,Pedra do Indaiá - MG,MG,3148905,-20.2563,-45.2107,0.0,0.0,0.0
2020,Pedralva - MG,MG,3149101,-22.2386,-45.4654,1680.0,4.368,2.6
2020,Pedras de Maria da Cruz - MG,MG,3149150,-15.6032,-44.391,0.0,0.0,0.0
2020,Pedrinópolis - MG,MG,3149200,-19.2241,-47.4579,2158.0,0.572,0.265
2020,Pedro Leopoldo - MG,MG,3149309,-19.6308,-44.0383,0.0,0.0,0.0
2020,Pedro Teixeira - MG,MG,3149408,-21.7076,-43.743,0.0,0.0,0.0
2020,Pequeri - MG,MG,3149507,-21.8341,-43.1145,0.0,0.0,0.0
2020,Pequi - MG,MG,3149606,-19.6284,-44.6604,0.0,0.0,0.0
2020,Perdigão - MG,MG,3149705,-19.9411,-45.078,0.0,0.0,0.0
2020,Perdizes - MG,MG,3149804,-19.3434,-47.2963,2051.0,15.771,7.69
2020,Perdões - MG,MG,3149903,-21.0932,-45.0896,1920.0,6.528,3.4
2020,Periquito - MG,MG,3149952,-19.1573,-42.2333,1500.0,0.006,0.004
2020,Pescador - MG,MG,3150000,-18.357,-41.6006,0.0,0.0,0.0
2020,Peçanha - MG,MG,3148608,-18.5441,-42.5583,2000.0,0.208,0.104
2020,Piau - MG,MG,3150109,-21.5096,-43.313,0.0,0.0,0.0
2020,Piedade de Caratinga - MG,MG,3150158,-19.7593,-42.0756,1800.0,4.536,2.52
2020,Piedade de Ponte Nova - MG,MG,3150208,-20.2438,-42.7379,0.0,0.0,0.0
2020,Piedade do Rio Grande - MG,MG,3150307,-21.469,-44.1938,0.0,0.0,0.0
2020,Piedade dos Gerais - MG,MG,3150406,-20.4715,-44.2243,0.0,0.0,0.0
2020,Pimenta - MG,MG,3150505,-20.4827,-45.8049,1800.0,3.744,2.08
2020,Pingo-d'Água - MG,MG,3150539,-19.7287,-42.4095,0.0,0.0,0.0
2020,Pintópolis - MG,MG,3150570,-16.0572,-45.1402,0.0,0.0,0.0
2020,Piracema - MG,MG,3150604,-20.5089,-44.4783,1333.0,0.008,0.006
2020,Pirajuba - MG,MG,3150703,-19.9092,-48.7027,0.0,0.0,0.0
2020,Piranga - MG,MG,3150802,-20.6834,-43.2967,2400.0,0.48,0.2
2020,Piranguinho - MG,MG,3151008,-22.395,-45.5324,1458.0,0.802,0.55
2020,Piranguçu - MG,MG,3150901,-22.5249,-45.4945,1333.0,0.008,0.006
2020,Pirapetinga - MG,MG,3151107,-21.6554,-42.3434,2494.0,0.212,0.085
2020,Pirapora - MG,MG,3151206,-17.3392,-44.934,3600.0,3.204,0.89
2020,Piraúba - MG,MG,3151305,-21.2825,-43.0172,0.0,0.0,0.0
2020,Pitangui - MG,MG,3151404,-19.6741,-44.8964,0.0,0.0,0.0
2020,Piumhi - MG,MG,3151503,-20.4762,-45.9589,1740.0,21.047,12.096
2020,Planura - MG,MG,3151602,-20.1376,-48.7,0.0,0.0,0.0
2020,Pocrane - MG,MG,3151909,-19.6208,-41.6334,2372.0,1.02,0.43
2020,Pompéu - MG,MG,3152006,-19.2257,-45.0141,0.0,0.0,0.0
2020,Ponte Nova - MG,MG,3152105,-20.4111,-42.8978,1333.0,0.008,0.006
2020,Ponto Chique - MG,MG,3152131,-16.6282,-45.0588,0.0,0.0,0.0
2020,Ponto dos Volantes - MG,MG,3152170,-16.7473,-41.5025,632.0,0.06,0.095
2020,Porteirinha - MG,MG,3152204,-15.7404,-43.0281,0.0,0.0,0.0
2020,Porto Firme - MG,MG,3152303,-20.6642,-43.0834,1560.0,0.78,0.5
2020,Poté - MG,MG,3152402,-17.8077,-41.786,657.0,0.046,0.07
2020,Pouso Alegre - MG,MG,3152501,-22.2266,-45.9389,1638.0,0.131,0.08
2020,Pouso Alto - MG,MG,3152600,-22.1964,-44.9748,1450.0,0.145,0.1
2020,Poço Fundo - MG,MG,3151701,-21.78,-45.9658,1740.0,13.574,7.801
2020,Poços de Caldas - MG,MG,3151800,-21.78,-46.5692,1800.0,6.3,3.5
2020,Prados - MG,MG,3152709,-21.0597,-44.0778,1500.0,0.003,0.002
2020,Prata - MG,MG,3152808,-19.3086,-48.9276,1333.0,0.004,0.003
2020,Pratinha - MG,MG,3153004,-19.739,-46.3755,2100.0,5.25,2.5
2020,Pratápolis - MG,MG,3152907,-20.7411,-46.8624,2402.0,0.418,0.174
2020,Presidente Bernardes - MG,MG,3153103,-20.7656,-43.1895,1500.0,0.24,0.16
2020,Presidente Juscelino - MG,MG,3153202,-18.6401,-44.06,0.0,0.0,0.0
2020,Presidente Kubitschek - MG,MG,3153301,-18.6193,-43.5628,1789.0,0.034,0.019
2020,Presidente Olegário - MG,MG,3153400,-18.4096,-46.4165,1981.0,10.026,5.06
2020,Prudente de Morais - MG,MG,3153608,-19.4742,-44.1591,0.0,0.0,0.0
2020,Quartel Geral - MG,MG,3153707,-19.2703,-45.5569,3600.0,0.504,0.14
2020,Queluzito - MG,MG,3153806,-20.7416,-43.8851,0.0,0.0,0.0
2020,Raposos - MG,MG,3153905,-19.9636,-43.8079,1333.0,0.004,0.003
2020,Raul Soares - MG,MG,3154002,-20.1061,-42.4502,1337.0,6.436,4.815
2020,Recreio - MG,MG,3154101,-21.5289,-42.4676,1500.0,0.003,0.002
2020,Reduto - MG,MG,3154150,-20.2401,-41.9848,1800.0,5.13,2.85
2020,Resende Costa - MG,MG,3154200,-20.9171,-44.2407,0.0,0.0,0.0
2020,Resplendor - MG,MG,3154309,-19.3194,-41.2462,2329.0,0.396,0.17
2020,Ressaquinha - MG,MG,3154408,-21.0642,-43.7598,0.0,0.0,0.0
2020,Riachinho - MG,MG,3154457,-16.2258,-45.9888,0.0,0.0,0.0
2020,Riacho dos Machados - MG,MG,3154507,-16.0091,-43.0488,0.0,0.0,0.0
2020,Ribeirão Vermelho - MG,MG,3154705,-21.1879,-45.0637,1920.0,0.288,0.15
2020,Ribeirão das Neves - MG,MG,3154606,-19.7621,-44.0844,0.0,0.0,0.0
2020,Rio Acima - MG,MG,3154804,-20.0876,-43.7878,0.0,0.0,0.0
2020,Rio Casca - MG,MG,3154903,-20.2285,-42.6462,750.0,0.009,0.012
2020,Rio Doce - MG,MG,3155009,-20.2412,-42.8995,0.0,0.0,0.0
2020,Rio Espera - MG,MG,3155207,-20.855,-43.4721,1333.0,0.004,0.003
2020,Rio Manso - MG,MG,3155306,-20.2666,-44.3069,0.0,0.0,0.0
2020,Rio Novo - MG,MG,3155405,-21.4649,-43.1168,0.0,0.0,0.0
2020,Rio Paranaíba - MG,MG,3155504,-19.1861,-46.2455,1819.0,24.486,13.462
2020,Rio Pardo de Minas - MG,MG,3155603,-15.616,-42.5405,3449.0,1.614,0.468
2020,Rio Piracicaba - MG,MG,3155702,-19.9284,-43.1829,0.0,0.0,0.0
2020,Rio Pomba - MG,MG,3155801,-21.2712,-43.1696,0.0,0.0,0.0
2020,Rio Preto - MG,MG,3155900,-22.0861,-43.8293,0.0,0.0,0.0
2020,Rio Vermelho - MG,MG,3156007,-18.2922,-43.0018,933.0,0.014,0.015
2020,Rio do Prado - MG,MG,3155108,-16.6056,-40.5714,0.0,0.0,0.0
2020,Ritápolis - MG,MG,3156106,-21.0276,-44.3204,2102.0,0.475,0.226
2020,Rochedo de Minas - MG,MG,3156205,-21.6284,-43.0165,0.0,0.0,0.0
2020,Rodeiro - MG,MG,3156304,-21.2035,-42.8586,0.0,0.0,0.0
2020,Romaria - MG,MG,3156403,-18.8838,-47.5782,2331.0,12.12,5.2
2020,Rosário da Limeira - MG,MG,3156452,-20.9812,-42.5112,1500.0,1.095,0.73
2020,Rubelita - MG,MG,3156502,-16.4053,-42.261,0.0,0.0,0.0
2020,Rubim - MG,MG,3156601,-16.3775,-40.5397,0.0,0.0,0.0
2020,Sabará - MG,MG,3156700,-19.884,-43.8263,1571.0,0.011,0.007
2020,Sabinópolis - MG,MG,3156809,-18.6653,-43.0752,1000.0,0.005,0.005
2020,Sacramento - MG,MG,3156908,-19.8622,-47.4508,1832.0,4.104,2.24
2020,Salinas - MG,MG,3157005,-16.1753,-42.2964,1368.0,0.026,0.019
2020,Salto da Divisa - MG,MG,3157104,-16.0063,-39.9391,0.0,0.0,0.0
2020,Santa Bárbara - MG,MG,3157203,-19.9604,-43.4101,1143.0,0.016,0.014
2020,Santa Bárbara do Leste - MG,MG,3157252,-19.9753,-42.1457,1440.0,4.231,2.938
2020,Santa Bárbara do Monte Verde - MG,MG,3157278,-21.9592,-43.7027,1600.0,0.008,0.005
2020,Santa Bárbara do Tugúrio - MG,MG,3157302,-21.2431,-43.5607,893.0,0.025,0.028
2020,Santa Cruz de Salinas - MG,MG,3157377,-16.0967,-41.7418,833.0,0.005,0.006
2020,Santa Cruz do Escalvado - MG,MG,3157401,-20.2372,-42.8169,0.0,0.0,0.0
2020,Santa Efigênia de Minas - MG,MG,3157500,-18.8235,-42.4388,1667.0,0.005,0.003
2020,Santa Fé de Minas - MG,MG,3157609,-16.6859,-45.4102,0.0,0.0,0.0
2020,Santa Helena de Minas - MG,MG,3157658,-16.9707,-40.6727,0.0,0.0,0.0
2020,Santa Juliana - MG,MG,3157708,-19.3108,-47.5322,1793.0,0.052,0.029
2020,Santa Luzia - MG,MG,3157807,-19.7548,-43.8497,0.0,0.0,0.0
2020,Santa Margarida - MG,MG,3157906,-20.3839,-42.2519,1800.0,18.0,10.0
2020,Santa Maria de Itabira - MG,MG,3158003,-19.4431,-43.1064,0.0,0.0,0.0
2020,Santa Maria do Salto - MG,MG,3158102,-16.2479,-40.1512,667.0,0.002,0.003
2020,Santa Maria do Suaçuí - MG,MG,3158201,-18.1896,-42.4139,1154.0,0.03,0.026
2020,Santa Rita de Caldas - MG,MG,3159209,-22.0292,-46.3385,1800.0,0.342,0.19
2020,Santa Rita de Ibitipoca - MG,MG,3159407,-21.5658,-43.9163,0.0,0.0,0.0
2020,Santa Rita de Jacutinga - MG,MG,3159308,-22.1474,-44.0977,0.0,0.0,0.0
2020,Santa Rita de Minas - MG,MG,3159357,-19.876,-42.1363,1500.0,3.3,2.2
2020,Santa Rita do Itueto - MG,MG,3159506,-19.3576,-41.3821,2182.0,10.822,4.96
2020,Santa Rita do Sapucaí - MG,MG,3159605,-22.2461,-45.7034,1680.0,7.56,4.5
2020,Santa Rosa da Serra - MG,MG,3159704,-19.5186,-45.9611,2100.0,7.245,3.45
2020,Santa Vitória - MG,MG,3159803,-18.8414,-50.1208,0.0,0.0,0.0
2020,Santana da Vargem - MG,MG,3158300,-21.2449,-45.5005,2220.0,9.657,4.35
2020,Santana de Cataguases - MG,MG,3158409,-21.2893,-42.5524,0.0,0.0,0.0
2020,Santana de Pirapama - MG,MG,3158508,-18.9962,-44.0409,0.0,0.0,0.0
2020,Santana do Deserto - MG,MG,3158607,-21.9512,-43.1583,0.0,0.0,0.0
2020,Santana do Garambéu - MG,MG,3158706,-21.5983,-44.105,1667.0,0.005,0.003
2020,Santana do Jacaré - MG,MG,3158805,-20.9007,-45.1285,1800.0,0.846,0.47
2020,Santana do Manhuaçu - MG,MG,3158904,-20.1031,-41.9278,1800.0,12.06,6.7
2020,Santana do Paraíso - MG,MG,3158953,-19.3661,-42.5446,750.0,0.009,0.012
2020,Santana do Riacho - MG,MG,3159001,-19.1662,-43.722,0.0,0.0,0.0
2020,Santana dos Montes - MG,MG,3159100,-20.7868,-43.6949,1875.0,0.015,0.008
2020,Santo Antônio do Amparo - MG,MG,3159902,-20.943,-44.9176,2100.0,15.75,7.5
2020,Santo Antônio do Aventureiro - MG,MG,3160009,-21.7606,-42.8115,1750.0,0.007,0.004
2020,Santo Antônio do Grama - MG,MG,3160108,-20.3185,-42.6047,1696.0,0.039,0.023
2020,Santo Antônio do Itambé - MG,MG,3160207,-18.4609,-43.3006,0.0,0.0,0.0
2020,Santo Antônio do Jacinto - MG,MG,3160306,-16.5332,-40.1817,1500.0,0.003,0.002
2020,Santo Antônio do Monte - MG,MG,3160405,-20.085,-45.2947,1500.0,0.042,0.028
2020,Santo Antônio do Retiro - MG,MG,3160454,-15.3393,-42.6171,975.0,0.039,0.04
2020,Santo Antônio do Rio Abaixo - MG,MG,3160504,-19.2374,-43.2604,0.0,0.0,0.0
2020,Santo Hipólito - MG,MG,3160603,-18.2968,-44.2229,0.0,0.0,0.0
2020,Santos Dumont - MG,MG,3160702,-21.4634,-43.5499,0.0,0.0,0.0
2020,Sapucaí-Mirim - MG,MG,3165404,-22.7409,-45.738,0.0,0.0,0.0
2020,Sardoá - MG,MG,3165503,-18.7828,-42.3629,889.0,0.016,0.018
2020,Sarzedo - MG,MG,3165537,-20.0367,-44.1446,0.0,0.0,0.0
2020,Sem-Peixe - MG,MG,3165560,-20.1008,-42.8483,0.0,0.0,0.0
2020,Senador Amaral - MG,MG,3165578,-22.5869,-46.1763,0.0,0.0,0.0
2020,Senador Cortes - MG,MG,3165602,-21.7986,-42.9424,0.0,0.0,0.0
2020,Senador Firmino - MG,MG,3165701,-20.9158,-43.0904,1376.0,0.139,0.101
2020,Senador José Bento - MG,MG,3165800,-22.1633,-46.1792,1621.0,0.786,0.485
2020,Senador Modestino Gonçalves - MG,MG,3165909,-17.9465,-43.2172,3600.0,0.126,0.035
2020,Senhora de Oliveira - MG,MG,3166006,-20.7972,-43.3394,1800.0,0.216,0.12
2020,Senhora do Porto - MG,MG,3166105,-18.8909,-43.0799,0.0,0.0,0.0
2020,Senhora dos Remédios - MG,MG,3166204,-21.0351,-43.5812,1800.0,0.054,0.03
2020,Sericita - MG,MG,3166303,-20.4748,-42.4828,2520.0,14.616,5.8
2020,Seritinga - MG,MG,3166402,-21.9134,-44.518,0.0,0.0,0.0
2020,Serra Azul de Minas - MG,MG,3166501,-18.3602,-43.1675,1500.0,0.003,0.002
2020,Serra da Saudade - MG,MG,3166600,-19.4447,-45.795,0.0,0.0,0.0
2020,Serra do Salitre - MG,MG,3166808,-19.1083,-46.6961,1800.0,34.83,19.35
2020,Serra dos Aimorés - MG,MG,3166709,-17.7872,-40.2453,0.0,0.0,0.0
2020,Serrania - MG,MG,3166907,-21.5441,-46.0417,1800.0,6.12,3.4
2020,Serranos - MG,MG,3167004,-21.8857,-44.5125,0.0,0.0,0.0
2020,Serranópolis de Minas - MG,MG,3166956,-15.8176,-42.8732,1375.0,0.011,0.008
2020,Serro - MG,MG,3167103,-18.5991,-43.3744,962.0,0.102,0.106
2020,Sete Lagoas - MG,MG,3167202,-19.4569,-44.2413,0.0,0.0,0.0
2020,Setubinha - MG,MG,3165552,-17.6002,-42.1587,1000.0,0.94,0.94
2020,Silveirânia - MG,MG,3167301,-21.1615,-43.2128,1333.0,0.004,0.003
2020,Silvianópolis - MG,MG,3167400,-22.0274,-45.8385,1500.0,2.333,1.555
2020,Simonésia - MG,MG,3167608,-20.1341,-42.0091,1800.0,17.271,9.595
2020,Simão Pereira - MG,MG,3167509,-21.964,-43.3088,0.0,0.0,0.0
2020,Sobrália - MG,MG,3167707,-19.2345,-42.0998,0.0,0.0,0.0
2020,Soledade de Minas - MG,MG,3167806,-22.0554,-45.0464,3200.0,1.312,0.41
2020,São Bento Abade - MG,MG,3160801,-21.5839,-45.0699,1800.0,1.8,1.0
2020,São Brás do Suaçuí - MG,MG,3160900,-20.6242,-43.9515,0.0,0.0,0.0
2020,São Domingos das Dores - MG,MG,3160959,-19.5246,-42.0106,1560.0,3.276,2.1
2020,São Domingos do Prata - MG,MG,3161007,-19.8678,-42.971,885.0,0.092,0.104
2020,São Francisco - MG,MG,3161106,-15.9514,-44.8593,0.0,0.0,0.0
2020,São Francisco de Paula - MG,MG,3161205,-20.7036,-44.9838,1620.0,4.374,2.7
2020,São Francisco de Sales - MG,MG,3161304,-19.8611,-49.7727,0.0,0.0,0.0
2020,São Francisco do Glória - MG,MG,3161403,-20.7923,-42.2673,1682.0,2.199,1.307
2020,São Félix de Minas - MG,MG,3161056,-18.5959,-41.4889,1214.0,0.017,0.014
2020,São Geraldo - MG,MG,3161502,-20.9252,-42.8364,1800.0,0.477,0.265
2020,São Geraldo da Piedade - MG,MG,3161601,-18.8411,-42.2867,0.0,0.0,0.0
2020,São Geraldo do Baixio - MG,MG,3161650,-18.9097,-41.363,2406.0,0.077,0.032
2020,São Gonçalo do Abaeté - MG,MG,3161700,-18.3315,-45.8265,2440.0,0.732,0.3
2020,São Gonçalo do Pará - MG,MG,3161809,-19.9822,-44.8593,0.0,0.0,0.0
2020,São Gonçalo do Rio Abaixo - MG,MG,3161908,-19.8221,-43.366,1500.0,0.003,0.002
2020,São Gonçalo do Rio Preto - MG,MG,3125507,-18.0025,-43.3854,3600.0,0.09,0.025
2020,São Gonçalo do Sapucaí - MG,MG,3162005,-21.8932,-45.5893,2400.0,13.44,5.6
2020,São Gotardo - MG,MG,3162104,-19.3087,-46.0465,1380.0,2.519,1.825
2020,São Joaquim de Bicas - MG,MG,3162922,-20.048,-44.2749,0.0,0.0,0.0
2020,São José da Barra - MG,MG,3162948,-20.7178,-46.313,2537.0,7.332,2.89
2020,São José da Lapa - MG,MG,3162955,-19.6971,-43.9586,0.0,0.0,0.0
2020,São José da Safira - MG,MG,3163003,-18.3243,-42.1431,0.0,0.0,0.0
2020,São José da Varginha - MG,MG,3163102,-19.7006,-44.556,0.0,0.0,0.0
2020,São José do Alegre - MG,MG,3163201,-22.3243,-45.5258,1359.0,0.299,0.22
2020,São José do Divino - MG,MG,3163300,-18.4793,-41.3907,1000.0,0.002,0.002
2020,São José do Goiabal - MG,MG,3163409,-19.9214,-42.7035,1000.0,0.003,0.003
2020,São José do Jacuri - MG,MG,3163508,-18.281,-42.6729,800.0,0.004,0.005
2020,São José do Mantimento - MG,MG,3163607,-20.0058,-41.7486,1848.0,1.146,0.62
2020,São João Batista do Glória - MG,MG,3162203,-20.635,-46.508,1500.0,0.45,0.3
2020,São João Evangelista - MG,MG,3162807,-18.548,-42.7655,1333.0,0.004,0.003
2020,São João Nepomuceno - MG,MG,3162906,-21.5381,-43.0069,0.0,0.0,0.0
2020,São João da Lagoa - MG,MG,3162252,-16.8455,-44.3507,0.0,0.0,0.0
2020,São João da Mata - MG,MG,3162302,-21.928,-45.9297,1640.0,1.558,0.95
2020,São João da Ponte - MG,MG,3162401,-15.9271,-44.0096,0.0,0.0,0.0
2020,São João das Missões - MG,MG,3162450,-14.8859,-44.0922,0.0,0.0,0.0
2020,São João del Rei - MG,MG,3162500,-21.1311,-44.2526,1971.0,0.883,0.448
2020,São João do Manhuaçu - MG,MG,3162559,-20.3933,-42.1533,1800.0,11.889,6.605
2020,São João do Manteninha - MG,MG,3162575,-18.723,-41.1628,1053.0,0.379,0.36
2020,São João do Oriente - MG,MG,3162609,-19.3384,-42.1575,0.0,0.0,0.0
2020,São João do Pacuí - MG,MG,3162658,-16.5373,-44.5134,0.0,0.0,0.0
2020,São João do Paraíso - MG,MG,3162708,-15.3168,-42.0213,3071.0,0.783,0.255
2020,São Lourenço - MG,MG,3163706,-22.1166,-45.0506,3393.0,0.19,0.056
2020,São Miguel do Anta - MG,MG,3163805,-20.7067,-42.7174,1500.0,2.265,1.51
2020,São Pedro da União - MG,MG,3163904,-21.131,-46.6123,2100.0,7.56,3.6
2020,São Pedro do Suaçuí - MG,MG,3164100,-18.3609,-42.5981,800.0,0.004,0.005
2020,São Pedro dos Ferros - MG,MG,3164001,-20.1732,-42.5251,0.0,0.0,0.0
2020,São Romão - MG,MG,3164209,-16.3641,-45.0749,0.0,0.0,0.0
2020,São Roque de Minas - MG,MG,3164308,-20.249,-46.3639,1800.0,9.45,5.25
2020,São Sebastião da Bela Vista - MG,MG,3164407,-22.1583,-45.7546,1500.0,1.65,1.1
2020,São Sebastião da Vargem Alegre - MG,MG,3164431,-19.7477,-43.3679,1800.0,1.512,0.84
2020,São Sebastião do Anta - MG,MG,3164472,-19.5064,-41.985,1800.0,4.14,2.3
2020,São Sebastião do Maranhão - MG,MG,3164506,-18.0873,-42.5659,1119.0,0.075,0.067
2020,São Sebastião do Oeste - MG,MG,3164605,-20.2758,-45.0063,0.0,0.0,0.0
2020,São Sebastião do Paraíso - MG,MG,3164704,-20.9167,-46.9837,1929.0,23.689,12.28
2020,São Sebastião do Rio Preto - MG,MG,3164803,-19.2959,-43.1757,0.0,0.0,0.0
2020,São Sebastião do Rio Verde - MG,MG,3164902,-22.2183,-44.9761,0.0,0.0,0.0
2020,São Tiago - MG,MG,3165008,-20.9075,-44.5098,2700.0,0.953,0.353
2020,São Tomás de Aquino - MG,MG,3165107,-20.7791,-47.0962,2100.0,18.612,8.863
2020,São Tomé das Letras - MG,MG,3165206,-21.7218,-44.9849,2134.0,2.648,1.241
2020,São Vicente de Minas - MG,MG,3165305,-21.7042,-44.4431,0.0,0.0,0.0
2020,Tabuleiro - MG,MG,3167905,-21.3632,-43.2381,0.0,0.0,0.0
2020,Taiobeiras - MG,MG,3168002,-15.8106,-42.2259,3240.0,1.552,0.479
2020,Taparuba - MG,MG,3168051,-19.7621,-41.608,2670.0,0.291,0.109
2020,Tapira - MG,MG,3168101,-19.9166,-46.8264,2101.0,0.767,0.365
2020,Tapiraí - MG,MG,3168200,-19.8936,-46.0221,1800.0,2.543,1.413
2020,Taquaraçu de Minas - MG,MG,3168309,-19.6652,-43.6922,0.0,0.0,0.0
2020,Tarumirim - MG,MG,3168408,-19.2835,-42.0097,641.0,0.025,0.039
2020,Teixeiras - MG,MG,3168507,-20.6561,-42.8564,1500.0,1.275,0.85
2020,Teófilo Otoni - MG,MG,3168606,-17.8595,-41.5087,1094.0,0.035,0.032
2020,Timóteo - MG,MG,3168705,-19.5811,-42.6471,0.0,0.0,0.0
2020,Tiradentes - MG,MG,3168804,-21.1102,-44.1744,0.0,0.0,0.0
2020,Tiros - MG,MG,3168903,-19.0037,-45.9626,1740.0,3.698,2.125
2020,Tocantins - MG,MG,3169000,-21.1774,-43.0127,0.0,0.0,0.0
2020,Tocos do Moji - MG,MG,3169059,-22.3698,-46.0971,1441.0,0.516,0.358
2020,Toledo - MG,MG,3169109,-22.7421,-46.3728,0.0,0.0,0.0
2020,Tombos - MG,MG,3169208,-20.9086,-42.0228,1498.0,1.865,1.245
2020,Três Corações - MG,MG,3169307,-21.6921,-45.2511,2100.0,17.85,8.5
2020,Três Marias - MG,MG,3169356,-18.2048,-45.2473,0.0,0.0,0.0
2020,Três Pontas - MG,MG,3169406,-21.3694,-45.5109,2260.0,42.149,18.65
2020,Tumiritinga - MG,MG,3169505,-18.9844,-41.6527,0.0,0.0,0.0
2020,Tupaciguara - MG,MG,3169604,-18.5866,-48.6985,2100.0,0.231,0.11
2020,Turmalina - MG,MG,3169703,-17.2828,-42.7285,1320.0,0.779,0.59
2020,Turvolândia - MG,MG,3169802,-21.8733,-45.7859,1620.0,2.56,1.58
2020,Ubaporanga - MG,MG,3170057,-19.6351,-42.1059,1620.0,5.936,3.664
2020,Ubaí - MG,MG,3170008,-16.2885,-44.7783,0.0,0.0,0.0
2020,Uberaba - MG,MG,3170107,-19.7472,-47.9381,2533.0,1.089,0.43
2020,Uberlândia - MG,MG,3170206,-18.9141,-48.2749,1921.0,1.018,0.53
2020,Ubá - MG,MG,3169901,-21.1204,-42.9359,1500.0,0.009,0.006
2020,Umburatiba - MG,MG,3170305,-17.2548,-40.5779,0.0,0.0,0.0
2020,Unaí - MG,MG,3170404,-16.3592,-46.9022,2340.0,8.564,3.66
2020,União de Minas - MG,MG,3170438,-19.5299,-50.338,0.0,0.0,0.0
2020,Uruana de Minas - MG,MG,3170479,-16.0634,-46.2443,0.0,0.0,0.0
2020,Urucuia - MG,MG,3170529,-16.1244,-45.7352,2400.0,2.04,0.85
2020,Urucânia - MG,MG,3170503,-20.3521,-42.737,1333.0,0.008,0.006
2020,Vargem Alegre - MG,MG,3170578,-19.5988,-42.2949,1560.0,0.039,0.025
2020,Vargem Bonita - MG,MG,3170602,-20.3333,-46.3688,1803.0,4.158,2.306
2020,Vargem Grande do Rio Pardo - MG,MG,3170651,-15.3987,-42.3085,1800.0,0.162,0.09
2020,Varginha - MG,MG,3170701,-21.5556,-45.4364,1900.0,17.248,9.078
2020,Varjão de Minas - MG,MG,3170750,-18.3741,-46.0313,2520.0,4.712,1.87
2020,Varzelândia - MG,MG,3170909,-15.6992,-44.0278,0.0,0.0,0.0
2020,Vazante - MG,MG,3171006,-17.9827,-46.9088,0.0,0.0,0.0
2020,Verdelândia - MG,MG,3171030,-15.5845,-43.6121,0.0,0.0,0.0
2020,Veredinha - MG,MG,3171071,-17.3974,-42.7307,943.0,0.132,0.14
2020,Vermelho Novo - MG,MG,3171154,-20.0406,-42.2688,1320.0,3.287,2.49
2020,Veríssimo - MG,MG,3171105,-19.6657,-48.3118,0.0,0.0,0.0
2020,Vespasiano - MG,MG,3171204,-19.6883,-43.9239,0.0,0.0,0.0
2020,Vieiras - MG,MG,3171402,-20.867,-42.2401,1800.0,1.35,0.75
2020,Virgem da Lapa - MG,MG,3171600,-16.807,-42.3431,0.0,0.0,0.0
2020,Virginópolis - MG,MG,3171808,-18.8154,-42.7015,1627.0,0.122,0.075
2020,Virgolândia - MG,MG,3171907,-18.4738,-42.3067,2000.0,0.094,0.047
2020,Virgínia - MG,MG,3171709,-22.3264,-45.0965,1533.0,0.115,0.075
2020,Visconde do Rio Branco - MG,MG,3172004,-21.0127,-42.8361,1000.0,0.006,0.006
2020,Viçosa - MG,MG,3171303,-20.7559,-42.8742,1800.0,1.827,1.015
2020,Volta Grande - MG,MG,3172103,-21.7671,-42.5375,0.0,0.0,0.0
2020,Várzea da Palma - MG,MG,3170800,-17.5944,-44.7226,3000.0,1.68,0.56
2020,Wenceslau Braz - MG,MG,3172202,-22.5368,-45.3626,0.0,0.0,0.0
2020,Água Boa - MG,MG,3100609,-17.9914,-42.3806,1345.0,3.256,2.42
2020,Água Comprida - MG,MG,3100708,-20.0576,-48.1069,0.0,0.0,0.0
2020,Águas Formosas - MG,MG,3100906,-17.0802,-40.9384,0.0,0.0,0.0
2020,Águas Vermelhas - MG,MG,3101003,-15.7431,-41.4571,3568.0,2.034,0.57
2020,Adamantina - SP,SP,3500105,-21.682,-51.0737,1326.0,0.696,0.525
2020,Adolfo - SP,SP,3500204,-21.2325,-49.6451,0.0,0.0,0.0
2020,Aguaí - SP,SP,3500303,-22.0572,-46.9735,2400.0,1.116,0.465
2020,Agudos - SP,SP,3500709,-22.4694,-48.9863,0.0,0.0,0.0
2020,Alambari - SP,SP,3500758,-23.5503,-47.898,0.0,0.0,0.0
2020,Alfredo Marcondes - SP,SP,3500808,-21.9527,-51.414,1000.0,0.004,0.004
2020,Altair - SP,SP,3500907,-20.5242,-49.0571,0.0,0.0,0.0
2020,Altinópolis - SP,SP,3501004,-21.0214,-47.3712,1700.0,17.0,10.0
2020,Alto Alegre - SP,SP,3501103,-21.5811,-50.168,974.0,0.038,0.039
2020,Alumínio - SP,SP,3501152,-23.5306,-47.2546,0.0,0.0,0.0
2020,Alvinlândia - SP,SP,3501509,-22.4435,-49.7623,1513.0,1.392,0.92
2020,Americana - SP,SP,3501608,-22.7374,-47.3331,0.0,0.0,0.0
2020,Amparo - SP,SP,3501905,-22.7088,-46.772,1800.0,1.62,0.9
2020,Américo Brasiliense - SP,SP,3501707,-21.7288,-48.1147,1200.0,0.012,0.01
2020,Américo de Campos - SP,SP,3501806,-20.2985,-49.7359,600.0,0.015,0.025
2020,Analândia - SP,SP,3502002,-22.1289,-47.6619,2161.0,0.51,0.236
2020,Andradina - SP,SP,3502101,-20.8948,-51.3786,0.0,0.0,0.0
2020,Angatuba - SP,SP,3502200,-23.4917,-48.4139,1806.0,0.056,0.031
2020,Anhembi - SP,SP,3502309,-22.793,-48.1336,0.0,0.0,0.0
2020,Anhumas - SP,SP,3502408,-22.2934,-51.3895,1100.0,0.033,0.03
2020,Aparecida - SP,SP,3502507,-22.8495,-45.2325,0.0,0.0,0.0
2020,Aparecida d'Oeste - SP,SP,3502606,-20.4487,-50.8835,0.0,0.0,0.0
2020,Apiaí - SP,SP,3502705,-24.5108,-48.8443,0.0,0.0,0.0
2020,Aramina - SP,SP,3503000,-20.0882,-47.7873,0.0,0.0,0.0
2020,Arandu - SP,SP,3503109,-23.1386,-49.0487,1500.0,1.8,1.2
2020,Arapeí - SP,SP,3503158,-22.6717,-44.4441,0.0,0.0,0.0
2020,Araraquara - SP,SP,3503208,-21.7845,-48.178,1333.0,0.02,0.015
2020,Araras - SP,SP,3503307,-22.3572,-47.3842,1500.0,0.075,0.05
2020,Araçariguama - SP,SP,3502754,-23.4366,-47.0608,0.0,0.0,0.0
2020,Araçatuba - SP,SP,3502804,-21.2076,-50.4401,1211.0,0.069,0.057
2020,Araçoiaba da Serra - SP,SP,3502903,-23.5029,-47.6166,1000.0,0.004,0.004
2020,Arco-Íris - SP,SP,3503356,-21.7728,-50.466,1138.0,0.033,0.029
2020,Arealva - SP,SP,3503406,-22.031,-48.9135,1612.0,0.079,0.049
2020,Areias - SP,SP,3503505,-22.5786,-44.6992,0.0,0.0,0.0
2020,Areiópolis - SP,SP,3503604,-22.6672,-48.6681,1200.0,0.09,0.075
2020,Ariranha - SP,SP,3503703,-21.1872,-48.7904,1667.0,0.005,0.003
2020,Artur Nogueira - SP,SP,3503802,-22.5727,-47.1727,0.0,0.0,0.0
2020,Arujá - SP,SP,3503901,-23.3965,-46.32,0.0,0.0,0.0
2020,Aspásia - SP,SP,3503950,-20.16,-50.728,0.0,0.0,0.0
2020,Assis - SP,SP,3504008,-22.66,-50.4183,1250.0,0.005,0.004
2020,Atibaia - SP,SP,3504107,-23.1171,-46.5563,0.0,0.0,0.0
2020,Auriflama - SP,SP,3504206,-20.6836,-50.5572,0.0,0.0,0.0
2020,Avanhandava - SP,SP,3504404,-21.4584,-49.9509,833.0,0.025,0.03
2020,Avaré - SP,SP,3504503,-23.1067,-48.9251,1300.0,0.689,0.53
2020,Avaí - SP,SP,3504305,-22.1514,-49.3356,1200.0,0.048,0.04
2020,Bady Bassitt - SP,SP,3504602,-20.9197,-49.4385,0.0,0.0,0.0
2020,Balbinos - SP,SP,3504701,-21.8963,-49.3619,1500.0,0.024,0.016
2020,Bananal - SP,SP,3504909,-22.6819,-44.3281,0.0,0.0,0.0
2020,Barbosa - SP,SP,3505104,-21.2657,-49.9518,0.0,0.0,0.0
2020,Bariri - SP,SP,3505203,-22.073,-48.7438,1500.0,0.105,0.07
2020,Barra Bonita - SP,SP,3505302,-22.4909,-48.5583,1167.0,0.007,0.006
2020,Barra do Chapéu - SP,SP,3505351,-24.4722,-49.0238,0.0,0.0,0.0
2020,Barra do Turvo - SP,SP,3505401,-24.759,-48.5013,1000.0,0.002,0.002
2020,Barretos - SP,SP,3505500,-20.5531,-48.5698,0.0,0.0,0.0
2020,Barrinha - SP,SP,3505609,-21.1864,-48.1636,0.0,0.0,0.0
2020,Barueri - SP,SP,3505708,-23.5057,-46.879,0.0,0.0,0.0
2020,Barão de Antonina - SP,SP,3505005,-23.6284,-49.5634,2923.0,0.038,0.013
2020,Bastos - SP,SP,3505807,-21.921,-50.7357,0.0,0.0,0.0
2020,Batatais - SP,SP,3505906,-20.8929,-47.5921,1620.0,4.86,3.0
2020,Bauru - SP,SP,3506003,-22.3246,-49.0871,1000.0,0.005,0.005
2020,Bebedouro - SP,SP,3506102,-20.9491,-48.4791,1667.0,0.04,0.024
2020,Bento de Abreu - SP,SP,3506201,-21.2686,-50.814,0.0,0.0,0.0
2020,Bernardino de Campos - SP,SP,3506300,-23.0164,-49.4679,1800.0,0.27,0.15
2020,Bertioga - SP,SP,3506359,-23.8486,-46.1396,0.0,0.0,0.0
2020,Bilac - SP,SP,3506409,-21.404,-50.4746,1200.0,0.168,0.14
2020,Birigui - SP,SP,3506508,-21.291,-50.3432,1200.0,0.078,0.065
2020,Biritiba Mirim - SP,SP,3506607,-23.5698,-46.0407,0.0,0.0,0.0
2020,Boa Esperança do Sul - SP,SP,3506706,-21.9918,-48.3906,1600.0,0.016,0.01
2020,Bocaina - SP,SP,3506805,-22.1365,-48.523,1200.0,0.072,0.06
2020,Bofete - SP,SP,3506904,-23.1055,-48.2582,900.0,0.036,0.04
2020,Boituva - SP,SP,3507001,-23.2855,-47.6786,1583.0,0.019,0.012
2020,Bom Jesus dos Perdões - SP,SP,3507100,-23.1356,-46.4675,0.0,0.0,0.0
2020,Bom Sucesso de Itararé - SP,SP,3507159,-24.3155,-49.1451,0.0,0.0,0.0
2020,Boracéia - SP,SP,3507308,-22.1926,-48.7808,1511.0,0.068,0.045
2020,Borborema - SP,SP,3507407,-21.6214,-49.0741,2000.0,0.054,0.027
2020,Borebi - SP,SP,3507456,-22.5728,-48.9707,0.0,0.0,0.0
2020,Borá - SP,SP,3507209,-22.2696,-50.5409,0.0,0.0,0.0
2020,Botucatu - SP,SP,3507506,-22.8837,-48.4437,1320.0,0.66,0.5
2020,Bragança Paulista - SP,SP,3507605,-22.9527,-46.5419,1500.0,0.885,0.59
2020,Braúna - SP,SP,3507704,-21.499,-50.3175,1507.0,0.113,0.075
2020,Brejo Alegre - SP,SP,3507753,-21.1651,-50.1861,0.0,0.0,0.0
2020,Brodowski - SP,SP,3507803,-20.9845,-47.6572,1500.0,1.425,0.95
2020,Brotas - SP,SP,3507902,-22.2795,-48.1251,1900.0,0.515,0.271
2020,Buri - SP,SP,3508009,-23.7977,-48.5958,0.0,0.0,0.0
2020,Buritama - SP,SP,3508108,-21.0661,-50.1475,0.0,0.0,0.0
2020,Buritizal - SP,SP,3508207,-20.1911,-47.7096,1833.0,0.843,0.46
2020,Bálsamo - SP,SP,3504800,-20.7348,-49.5865,1300.0,0.091,0.07
2020,Cabreúva - SP,SP,3508405,-23.3053,-47.1362,1308.0,0.017,0.013
2020,Cabrália Paulista - SP,SP,3508306,-22.4576,-49.3393,1714.0,0.12,0.07
2020,Cachoeira Paulista - SP,SP,3508603,-22.6665,-45.0154,0.0,0.0,0.0
2020,Caconde - SP,SP,3508702,-21.528,-46.6437,1920.0,17.28,9.0
2020,Cafelândia - SP,SP,3508801,-21.8031,-49.6092,1517.0,0.311,0.205
2020,Caiabu - SP,SP,3508900,-22.0127,-51.2394,0.0,0.0,0.0
2020,Caieiras - SP,SP,3509007,-23.3607,-46.7397,1000.0,0.002,0.002
2020,Caiuá - SP,SP,3509106,-21.8322,-51.9969,0.0,0.0,0.0
2020,Cajamar - SP,SP,3509205,-23.355,-46.8781,0.0,0.0,0.0
2020,Cajati - SP,SP,3509254,-24.7324,-48.1223,0.0,0.0,0.0
2020,Cajobi - SP,SP,3509304,-20.8773,-48.8063,0.0,0.0,0.0
2020,Cajuru - SP,SP,3509403,-21.2749,-47.303,1380.0,2.76,2.0
2020,Campina do Monte Alegre - SP,SP,3509452,-23.5895,-48.4758,0.0,0.0,0.0
2020,Campinas - SP,SP,3509502,-22.9053,-47.0659,1560.0,0.78,0.5
2020,Campo Limpo Paulista - SP,SP,3509601,-23.2078,-46.7889,0.0,0.0,0.0
2020,Campos Novos Paulista - SP,SP,3509809,-22.602,-49.9987,1493.0,0.1,0.067
2020,Campos do Jordão - SP,SP,3509700,-22.7296,-45.5833,0.0,0.0,0.0
2020,Cananéia - SP,SP,3509908,-25.0144,-47.9341,0.0,0.0,0.0
2020,Canas - SP,SP,3509957,-22.7003,-45.0521,0.0,0.0,0.0
2020,Canitar - SP,SP,3510153,-23.004,-49.7839,0.0,0.0,0.0
2020,Capela do Alto - SP,SP,3510302,-23.4685,-47.7388,0.0,0.0,0.0
2020,Capivari - SP,SP,3510401,-22.9951,-47.5071,0.0,0.0,0.0
2020,Capão Bonito - SP,SP,3510203,-24.0113,-48.3482,0.0,0.0,0.0
2020,Caraguatatuba - SP,SP,3510500,-23.6125,-45.4125,0.0,0.0,0.0
2020,Cardoso - SP,SP,3510708,-20.08,-49.9183,0.0,0.0,0.0
2020,Casa Branca - SP,SP,3510807,-21.7708,-47.0852,1376.0,0.183,0.133
2020,Castilho - SP,SP,3511003,-20.8689,-51.4884,0.0,0.0,0.0
2020,Catanduva - SP,SP,3511102,-21.1314,-48.977,0.0,0.0,0.0
2020,Catiguá - SP,SP,3511201,-21.0519,-49.0616,500.0,0.005,0.01
2020,Caçapava - SP,SP,3508504,-23.0992,-45.7076,0.0,0.0,0.0
2020,Cedral - SP,SP,3511300,-20.9009,-49.2664,2500.0,0.03,0.012
2020,Cerqueira César - SP,SP,3511409,-23.038,-49.1655,1200.0,0.3,0.25
2020,Cerquilho - SP,SP,3511508,-23.1665,-47.7459,1000.0,0.001,0.001
2020,Cesário Lange - SP,SP,3511607,-23.226,-47.9545,0.0,0.0,0.0
2020,Charqueada - SP,SP,3511706,-22.5096,-47.7755,0.0,0.0,0.0
2020,Chavantes - SP,SP,3557204,-23.0366,-49.7096,1000.0,0.002,0.009
2020,Clementina - SP,SP,3511904,-21.5604,-50.4525,1080.0,0.054,0.05
2020,Colina - SP,SP,3512001,-20.7114,-48.5387,0.0,0.0,0.0
2020,Colômbia - SP,SP,3512100,-20.1768,-48.6865,1167.0,0.007,0.006
2020,Conchal - SP,SP,3512209,-22.3375,-47.1729,0.0,0.0,0.0
2020,Conchas - SP,SP,3512308,-23.0154,-48.0134,0.0,0.0,0.0
2020,Cordeirópolis - SP,SP,3512407,-22.4778,-47.4519,1800.0,0.018,0.01
2020,Coroados - SP,SP,3512506,-21.3521,-50.2859,1200.0,0.042,0.035
2020,Coronel Macedo - SP,SP,3512605,-23.6261,-49.31,1500.0,0.6,0.4
2020,Corumbataí - SP,SP,3512704,-22.2213,-47.6215,1935.0,0.089,0.046
2020,Cosmorama - SP,SP,3512902,-20.4755,-49.7827,600.0,0.03,0.05
2020,Cosmópolis - SP,SP,3512803,-22.6419,-47.1926,0.0,0.0,0.0
2020,Cotia - SP,SP,3513009,-23.6022,-46.919,0.0,0.0,0.0
2020,Cravinhos - SP,SP,3513108,-21.338,-47.7324,1504.0,0.206,0.137
2020,Cristais Paulista - SP,SP,3513207,-20.4036,-47.4209,2040.0,16.116,7.9
2020,Cruzeiro - SP,SP,3513405,-22.5728,-44.969,0.0,0.0,0.0
2020,Cruzália - SP,SP,3513306,-22.7373,-50.7909,0.0,0.0,0.0
2020,Cubatão - SP,SP,3513504,-23.8911,-46.424,0.0,0.0,0.0
2020,Cunha - SP,SP,3513603,-23.0731,-44.9576,0.0,0.0,0.0
2020,Cássia dos Coqueiros - SP,SP,3510906,-21.2801,-47.1643,1800.0,3.96,2.2
2020,Cândido Mota - SP,SP,3510005,-22.7471,-50.3873,900.0,0.018,0.02
2020,Cândido Rodrigues - SP,SP,3510104,-21.3275,-48.6327,0.0,0.0,0.0
2020,Descalvado - SP,SP,3513702,-21.9002,-47.6181,1300.0,0.546,0.42
2020,Dirce Reis - SP,SP,3513850,-20.4642,-50.6073,1000.0,0.001,0.001
2020,Divinolândia - SP,SP,3513900,-21.6637,-46.7361,1500.0,7.35,4.9
2020,Dobrada - SP,SP,3514007,-21.5155,-48.3935,0.0,0.0,0.0
2020,Dois Córregos - SP,SP,3514106,-22.3673,-48.3819,1959.0,6.074,3.1
2020,Dolcinópolis - SP,SP,3514205,-20.124,-50.5149,0.0,0.0,0.0
2020,Dourado - SP,SP,3514304,-22.1044,-48.3178,1305.0,0.137,0.105
2020,Dracena - SP,SP,3514403,-21.4843,-51.535,800.0,0.144,0.18
2020,Duartina - SP,SP,3514502,-22.4146,-49.4084,1319.0,0.277,0.212
2020,Dumont - SP,SP,3514601,-21.2324,-47.9756,0.0,0.0,0.0
2020,Echaporã - SP,SP,3514700,-22.4326,-50.2038,1000.0,0.07,0.07
2020,Eldorado - SP,SP,3514809,-24.5281,-48.1141,0.0,0.0,0.0
2020,Elias Fausto - SP,SP,3514908,-23.0428,-47.3682,0.0,0.0,0.0
2020,Elisiário - SP,SP,3514924,-21.1678,-49.1146,0.0,0.0,0.0
2020,Embaúba - SP,SP,3514957,-20.9796,-48.8325,1500.0,0.006,0.004
