year,region_name,state_name,municipio_cod,latitude,longitude,yield_kg_ha,production_1000t,area_planted_1000ha
2000,Abaíra - BA,BA,2900108,-13.2488,-41.6619,1500.0,0.375,0.25
2000,Alcobaça - BA,BA,2900801,-17.5195,-39.2036,1500.0,0.675,0.45
2000,Amargosa - BA,BA,2901007,-13.0215,-39.602,800.0,0.24,0.6
2000,América Dourada - BA,BA,2901155,-11.4429,-41.439,3000.0,0.003,0.001
2000,Andaraí - BA,BA,2901304,-12.8049,-41.3297,1800.0,0.081,0.045
2000,Antônio Gonçalves - BA,BA,2901809,-10.5767,-40.2785,941.0,0.016,0.017
2000,Arataca - BA,BA,2902252,-15.2651,-39.419,504.0,0.353,0.7
2000,Barra da Estiva - BA,BA,2902807,-13.6237,-41.3347,720.0,7.056,9.8
2000,Barra do Choça - BA,BA,2902906,-14.8654,-40.5791,900.0,13.887,18.43
2000,Barra do Mendes - BA,BA,2903003,-11.81,-42.059,450.0,0.225,0.5
2000,Barreiras - BA,BA,2903201,-12.1439,-44.9968,3600.0,11.866,7.614
2000,Belmonte - BA,BA,2903409,-15.8608,-38.8758,600.0,0.036,0.06
2000,Boa Nova - BA,BA,2903706,-14.3598,-40.2064,1200.0,0.048,0.04
2000,Bom Jesus da Lapa - BA,BA,2903904,-13.2506,-43.4108,2000.0,0.076,0.038
2000,Boninal - BA,BA,2904001,-12.7069,-41.8286,300.0,0.009,0.03
2000,Bonito - BA,BA,2904050,-11.9668,-41.2647,1366.0,10.25,7.5
2000,Brejões - BA,BA,2904308,-13.1039,-39.7988,1000.0,6.0,6.0
2000,Caatiba - BA,BA,2904803,-14.9699,-40.4092,900.0,0.288,0.32
2000,Caculé - BA,BA,2905008,-14.5003,-42.2229,700.0,0.021,0.03
2000,Caetité - BA,BA,2905206,-14.0684,-42.4861,699.0,0.338,0.483
2000,Camacan - BA,BA,2905602,-15.4142,-39.4919,500.0,0.055,0.11
2000,Camamu - BA,BA,2905800,-13.9398,-39.1071,1800.0,0.09,0.05
2000,Campo Formoso - BA,BA,2906006,-10.5105,-40.32,942.0,0.065,0.069
2000,Caravelas - BA,BA,2906907,-17.7268,-39.2597,1500.0,0.3,0.2
2000,Coaraci - BA,BA,2908002,-14.637,-39.5556,320.0,0.008,0.025
2000,Cocos - BA,BA,2908101,-14.1814,-44.5352,2502.0,0.538,0.702
2000,Conceição do Almeida - BA,BA,2908309,-12.7836,-39.1715,714.0,0.005,0.007
2000,Contendas do Sincorá - BA,BA,2908804,-13.7537,-41.048,800.0,0.2,0.25
2000,Cravolândia - BA,BA,2909505,-13.3531,-39.8031,800.0,0.1,0.125
2000,Dário Meira - BA,BA,2910008,-14.4229,-39.9031,666.0,0.02,0.03
2000,Elísio Medrado - BA,BA,2910305,-12.9417,-39.5191,800.0,0.012,0.015
2000,Encruzilhada - BA,BA,2910404,-15.5302,-40.9124,1200.0,3.6,3.5
2000,Eunápolis - BA,BA,2910727,-16.3715,-39.5821,600.0,0.456,0.76
2000,Firmino Alves - BA,BA,2910909,-14.9823,-39.9269,709.0,0.706,0.995
2000,Floresta Azul - BA,BA,2911006,-14.8629,-39.6579,500.0,0.1,0.2
2000,Gandu - BA,BA,2911204,-13.7441,-39.4747,727.0,0.008,0.011
2000,Guanambi - BA,BA,2911709,-14.2231,-42.7799,600.0,0.006,0.01
2000,Guaratinga - BA,BA,2911808,-16.5833,-39.7847,600.0,0.408,0.88
2000,Ibiassucê - BA,BA,2912004,-14.2711,-42.257,600.0,0.012,0.02
2000,Ibicoara - BA,BA,2912202,-13.4059,-41.284,720.0,5.04,7.0
2000,Ibicuí - BA,BA,2912301,-14.845,-39.9879,600.0,0.015,0.025
2000,Ibirapitanga - BA,BA,2912707,-14.1649,-39.3787,500.0,0.015,0.03
2000,Ibirapuã - BA,BA,2912806,-17.6832,-40.1129,733.0,0.033,0.045
2000,Ibirataia - BA,BA,2912905,-14.0643,-39.6459,600.0,0.009,0.015
2000,Ibitiara - BA,BA,2913002,-12.6502,-42.2179,250.0,0.002,0.008
2000,Igaporã - BA,BA,2913408,-13.774,-42.7155,700.0,0.007,0.01
2000,Igrapiúna - BA,BA,2913457,-13.8295,-39.1361,1700.0,0.102,0.06
2000,Iguaí - BA,BA,2913507,-14.7528,-40.0894,600.0,0.06,0.1
2000,Ilhéus - BA,BA,2913606,-14.793,-39.046,295.0,0.029,0.1
2000,Irajuba - BA,BA,2914208,-13.2563,-40.0848,600.0,0.18,0.3
2000,Iraquara - BA,BA,2914406,-12.2429,-41.6155,300.0,0.18,0.6
2000,Itabela - BA,BA,2914653,-16.5732,-39.5593,598.0,0.898,1.5
2000,Itaeté - BA,BA,2915007,-12.9831,-40.9677,1824.0,0.104,0.057
2000,Itagi - BA,BA,2915106,-14.1615,-40.0131,1000.0,0.03,0.03
2000,Itagimirim - BA,BA,2915304,-16.0819,-39.6133,625.0,0.005,0.008
2000,Itamaraju - BA,BA,2915601,-17.0378,-39.5386,1800.0,5.688,3.16
2000,Itambé - BA,BA,2915809,-15.2429,-40.63,1200.0,0.24,0.2
2000,Itanhém - BA,BA,2916005,-17.1642,-40.3321,780.0,0.625,0.801
2000,Itapebi - BA,BA,2916302,-15.9551,-39.5329,600.0,0.009,0.015
2000,Itaquara - BA,BA,2916708,-13.4459,-39.9378,1000.0,0.31,0.31
2000,Itiruçu - BA,BA,2916906,-13.529,-40.1472,1000.0,1.3,1.3
2000,Itiúba - BA,BA,2917003,-10.6948,-39.8446,1000.0,0.002,0.002
2000,Itororó - BA,BA,2917102,-15.11,-40.0684,900.0,0.09,0.1
2000,Ituaçu - BA,BA,2917201,-13.8107,-41.3003,720.0,2.34,3.25
2000,Ituberá - BA,BA,2917300,-13.7249,-39.1481,1600.0,0.008,0.005
2000,Jacaraci - BA,BA,2917409,-14.8541,-42.4329,675.0,0.027,0.04
2000,Jacobina - BA,BA,2917508,-11.1812,-40.5117,500.0,0.02,0.04
2000,Jaguaquara - BA,BA,2917607,-13.5248,-39.964,1000.0,1.35,1.35
2000,Jaguarari - BA,BA,2917706,-10.2569,-40.1999,1000.0,0.002,0.002
2000,Jequié - BA,BA,2918001,-13.8509,-40.0877,801.0,0.085,0.106
2000,Jiquiriçá - BA,BA,2918209,-13.2621,-39.5737,1192.0,0.062,0.052
2000,Jitaúna - BA,BA,2918308,-14.0131,-39.8969,1200.0,0.048,0.04
2000,Jucuruçu - BA,BA,2918456,-16.8488,-40.1641,1200.0,1.92,1.6
2000,Jussiape - BA,BA,2918605,-13.5155,-41.5882,800.0,0.024,0.03
2000,Lafaiete Coutinho - BA,BA,2918704,-13.6541,-40.2119,700.0,0.28,0.4
2000,Laje - BA,BA,2918803,-13.1673,-39.4213,1200.0,0.018,0.015
2000,Lajedo do Tabocal - BA,BA,2919058,-13.4663,-40.2204,1000.0,1.52,1.52
2000,Lençóis - BA,BA,2919306,-12.5616,-41.3928,600.0,0.72,1.2
2000,Licínio de Almeida - BA,BA,2919405,-14.6842,-42.5095,700.0,0.021,0.03
2000,Macarani - BA,BA,2919702,-15.5646,-40.4209,714.0,0.025,0.035
2000,Macaúbas - BA,BA,2919801,-13.0186,-42.6945,1533.0,0.023,0.015
2000,Maracás - BA,BA,2920502,-13.4355,-40.4323,800.0,0.16,0.2
2000,Mascote - BA,BA,2920908,-15.5542,-39.3016,461.0,0.006,0.013
2000,Miguel Calmon - BA,BA,2921203,-11.4299,-40.6031,500.0,0.075,0.15
2000,Mirangaba - BA,BA,2921401,-10.961,-40.574,500.0,0.015,0.03
2000,Morro do Chapéu - BA,BA,2921708,-11.5488,-41.1565,2160.0,6.48,3.0
2000,Mortugaba - BA,BA,2921807,-15.0225,-42.3727,725.0,0.029,0.04
2000,Mucugê - BA,BA,2921906,-13.0053,-41.3703,2024.0,2.652,1.31
2000,Mulungu do Morro - BA,BA,2922052,-11.9648,-41.6374,450.0,0.45,1.0
2000,Mundo Novo - BA,BA,2922102,-11.8541,-40.4714,1000.0,0.76,0.76
2000,Mutuípe - BA,BA,2922409,-13.2284,-39.5044,928.0,0.013,0.014
2000,Nilo Peçanha - BA,BA,2922607,-13.604,-39.1091,1200.0,0.006,0.005
2000,Nova Canaã - BA,BA,2922706,-14.7912,-40.1458,720.0,0.216,0.3
2000,Nova Itarana - BA,BA,2922805,-13.0241,-40.0653,1000.0,0.16,0.16
2000,Nova Redenção - BA,BA,2922854,-12.815,-41.0748,1800.0,0.234,0.13
2000,Nova Viçosa - BA,BA,2923001,-17.8926,-39.3743,746.0,0.177,0.237
2000,Palmeiras - BA,BA,2923506,-12.5059,-41.5809,300.0,0.06,0.2
2000,Paramirim - BA,BA,2923605,-13.4388,-42.2395,875.0,0.007,0.008
2000,Pau Brasil - BA,BA,2923902,-15.4572,-39.6458,500.0,0.006,0.012
2000,Piatã - BA,BA,2924306,-13.1465,-41.7702,1500.0,2.4,1.6
2000,Pindaí - BA,BA,2924504,-14.4921,-42.686,600.0,0.006,0.01
2000,Pindobaçu - BA,BA,2924603,-10.7433,-40.3675,1000.0,0.002,0.002
2000,Piraí do Norte - BA,BA,2924678,-13.759,-39.3836,1000.0,0.005,0.005
2000,Piritiba - BA,BA,2924801,-11.73,-40.5587,1000.0,0.12,0.12
2000,Planaltino - BA,BA,2924900,-13.2618,-40.3695,600.0,0.09,0.15
2000,Planalto - BA,BA,2925006,-14.6654,-40.4718,900.0,1.08,1.2
2000,Porto Seguro - BA,BA,2925303,-16.4435,-39.0643,600.0,0.15,0.25
2000,Poções - BA,BA,2925105,-14.5234,-40.3634,900.0,0.81,0.9
2000,Prado - BA,BA,2925501,-17.3364,-39.2227,1800.0,8.46,4.7
2000,Presidente Tancredo Neves - BA,BA,2925758,-13.4471,-39.4203,1195.0,0.104,0.087
2000,Riachão das Neves - BA,BA,2926202,-11.7508,-44.9143,3500.0,0.714,0.204
2000,Ribeirão do Largo - BA,BA,2926657,-15.4508,-40.7441,900.0,2.25,2.5
2000,Rio de Contas - BA,BA,2926707,-13.5852,-41.8048,1600.0,0.72,0.45
2000,Ruy Barbosa - BA,BA,2927200,-12.2816,-40.4931,900.0,0.513,0.57
2000,Santa Cruz Cabrália - BA,BA,2927705,-16.2825,-39.0295,600.0,0.03,0.05
2000,Santa Cruz da Vitória - BA,BA,2927804,-14.964,-39.8115,666.0,0.002,0.003
2000,Santa Inês - BA,BA,2927903,-13.2793,-39.814,800.0,0.048,0.06
2000,Santa Luzia - BA,BA,2928059,-15.4342,-39.3287,500.0,0.022,0.044
2000,Santana - BA,BA,2928208,-12.9792,-44.0506,1666.0,0.005,0.003
2000,Seabra - BA,BA,2929909,-12.4169,-41.7722,300.0,1.2,4.0
2000,Senhor do Bonfim - BA,BA,2930105,-10.4594,-40.1865,900.0,0.018,0.02
2000,Souto Soares - BA,BA,2930808,-12.088,-41.6427,309.0,0.017,0.055
2000,São Desidério - BA,BA,2928901,-12.3572,-44.9769,3640.0,1.82,0.98
2000,São Felipe - BA,BA,2929107,-12.8394,-39.0893,833.0,0.005,0.006
2000,Tanhaçu - BA,BA,2931004,-14.0197,-41.2473,900.0,1.53,1.7
2000,Taperoá - BA,BA,2931202,-13.5321,-39.1009,1222.0,0.022,0.018
2000,Tapiramutá - BA,BA,2931301,-11.8475,-40.7927,2064.0,4.532,2.195
2000,Teixeira de Freitas - BA,BA,2931350,-17.5399,-39.74,780.0,0.32,0.41
2000,Ubaíra - BA,BA,2932101,-13.2714,-39.666,800.0,0.4,0.5
2000,Una - BA,BA,2932507,-15.2791,-39.0765,307.0,0.036,0.12
2000,Urandi - BA,BA,2932606,-14.7678,-42.6498,744.0,0.035,0.047
2000,Utinga - BA,BA,2932804,-12.0783,-41.0954,1741.0,2.09,1.2
2000,Valença - BA,BA,2932903,-13.3669,-39.073,1800.0,0.396,0.22
2000,Vereda - BA,BA,2933257,-17.2183,-40.0974,749.0,0.53,0.707
2000,Vitória da Conquista - BA,BA,2933307,-14.8615,-40.8442,900.0,5.4,14.0
2000,Wagner - BA,BA,2933406,-12.2819,-41.1715,1000.0,0.5,0.5
2000,Wenceslau Guimarães - BA,BA,2933505,-13.6908,-39.4762,700.0,0.056,0.08
2000,Érico Cardoso - BA,BA,2900504,-13.4215,-42.1352,750.0,0.006,0.008
2000,Afonso Cláudio - ES,ES,3200102,-20.0778,-41.1261,2176.0,37.0,17.0
2000,Alegre - ES,ES,3200201,-20.758,-41.5382,1779.0,15.84,8.9
2000,Alfredo Chaves - ES,ES,3200300,-20.6396,-40.7543,943.0,3.584,3.8
2000,Alto Rio Novo - ES,ES,3200359,-19.0618,-41.0209,616.0,4.62,7.5
2000,Anchieta - ES,ES,3200409,-20.7955,-40.6425,5760.0,8.525,1.48
2000,Apiacá - ES,ES,3200508,-21.1523,-41.5693,1793.0,4.537,2.53
2000,Aracruz - ES,ES,3200607,-19.82,-40.2764,3000.0,10.08,3.36
2000,Atílio Vivácqua - ES,ES,3200706,-20.913,-41.1986,1199.0,3.175,2.646
2000,Baixo Guandu - ES,ES,3200805,-19.5213,-41.0109,1590.0,10.895,6.85
2000,Barra de São Francisco - ES,ES,3200904,-18.7548,-40.8965,996.0,13.552,13.6
2000,Boa Esperança - ES,ES,3201001,-18.5395,-40.3025,1920.0,14.4,7.5
2000,Bom Jesus do Norte - ES,ES,3201100,-21.1173,-41.6731,1301.0,0.358,0.275
2000,Brejetuba - ES,ES,3201159,-20.1395,-41.2954,2440.0,32.94,13.5
2000,Cachoeiro de Itapemirim - ES,ES,3201209,-20.8462,-41.1198,2133.0,12.8,6.0
2000,Cariacica - ES,ES,3201308,-20.2632,-40.4165,1200.0,0.24,0.2
2000,Castelo - ES,ES,3201407,-20.6033,-41.2031,1737.0,18.24,10.5
2000,Colatina - ES,ES,3201506,-19.5493,-40.6269,992.0,24.508,24.7
2000,Conceição da Barra - ES,ES,3201605,-18.5883,-39.7362,1200.0,0.48,0.4
2000,Conceição do Castelo - ES,ES,3201704,-20.3639,-41.2417,1869.0,10.658,5.7
2000,Divino de São Lourenço - ES,ES,3201803,-20.6229,-41.6937,1560.0,4.368,2.8
2000,Domingos Martins - ES,ES,3201902,-20.3603,-40.6594,2265.0,15.629,6.9
2000,Dores do Rio Preto - ES,ES,3202009,-20.6931,-41.8405,1600.0,5.12,3.2
2000,Ecoporanga - ES,ES,3202108,-18.3702,-40.836,1108.0,5.32,4.8
2000,Fundão - ES,ES,3202207,-19.937,-40.4078,2164.0,4.957,2.29
2000,Guarapari - ES,ES,3202405,-20.6772,-40.5093,1320.0,1.716,1.3
2000,Guaçuí - ES,ES,3202306,-20.7668,-41.6734,1380.0,8.28,6.0
2000,Ibatiba - ES,ES,3202454,-20.2347,-41.5087,3000.0,24.0,8.0
2000,Ibiraçu - ES,ES,3202504,-19.8366,-40.3732,2365.0,5.264,2.225
2000,Ibitirama - ES,ES,3202553,-20.5466,-41.6667,1800.0,12.6,7.0
2000,Iconha - ES,ES,3202603,-20.7913,-40.8132,1426.0,4.265,2.99
2000,Irupi - ES,ES,3202652,-20.3501,-41.6444,2259.0,21.036,9.308
2000,Itaguaçu - ES,ES,3202702,-19.8018,-40.8601,2156.0,29.205,13.54
2000,Itapemirim - ES,ES,3202801,-21.0095,-40.8307,1000.0,0.365,0.365
2000,Itarana - ES,ES,3202900,-19.875,-40.8753,2386.0,15.991,6.702
2000,Iúna - ES,ES,3203007,-20.3531,-41.5334,2999.0,60.012,20.01
2000,Jaguaré - ES,ES,3203056,-18.907,-40.0759,2640.0,47.52,18.0
2000,Jerônimo Monteiro - ES,ES,3203106,-20.7994,-41.3948,1500.0,3.473,2.315
2000,João Neiva - ES,ES,3203130,-19.7577,-40.386,1300.0,3.097,2.382
2000,Laranja da Terra - ES,ES,3203163,-19.8994,-41.0621,2181.0,7.2,3.3
2000,Linhares - ES,ES,3203205,-19.3946,-40.0643,2663.0,32.625,12.25
2000,Mantenópolis - ES,ES,3203304,-18.8594,-41.124,883.0,4.592,5.2
2000,Marechal Floriano - ES,ES,3203346,-20.4159,-40.67,2200.0,6.82,3.1
2000,Marilândia - ES,ES,3203353,-19.4114,-40.5456,1680.0,14.28,8.5
2000,Mimoso do Sul - ES,ES,3203403,-21.0628,-41.3615,1920.0,23.04,12.0
2000,Montanha - ES,ES,3203502,-18.1303,-40.3668,3818.0,22.908,6.0
2000,Mucurici - ES,ES,3203601,-18.0965,-40.52,1748.0,0.285,0.163
2000,Muniz Freire - ES,ES,3203700,-20.4652,-41.4156,1919.0,34.572,18.008
2000,Muqui - ES,ES,3203809,-20.9509,-41.346,1601.0,4.966,3.1
2000,Nova Venécia - ES,ES,3203908,-18.715,-40.4053,2400.0,48.0,20.0
2000,Pancas - ES,ES,3204005,-19.2229,-40.8534,1008.0,13.612,13.5
2000,Pedro Canário - ES,ES,3204054,-18.3004,-39.9574,1200.0,0.24,0.2
2000,Pinheiros - ES,ES,3204104,-18.4141,-40.2171,3520.0,15.84,4.5
2000,Piúma - ES,ES,3204203,-20.8334,-40.7268,1922.0,0.371,0.193
2000,Ponto Belo - ES,ES,3204252,-18.1253,-40.5458,2160.0,0.864,0.4
2000,Presidente Kennedy - ES,ES,3204302,-21.0964,-41.0468,1900.0,0.741,0.39
2000,Rio Bananal - ES,ES,3204351,-19.2719,-40.3366,3384.0,53.975,15.95
2000,Rio Novo do Sul - ES,ES,3204401,-20.8556,-40.9388,1880.0,3.76,2.0
2000,Santa Leopoldina - ES,ES,3204500,-20.0999,-40.527,1686.0,4.15,2.46
2000,Santa Maria de Jetibá - ES,ES,3204559,-20.0253,-40.7439,1800.0,10.188,5.66
2000,Santa Teresa - ES,ES,3204609,-19.9363,-40.5979,1551.0,14.322,9.23
2000,Serra - ES,ES,3205002,-20.121,-40.3074,2000.0,0.94,0.47
2000,Sooretama - ES,ES,3205010,-19.1897,-40.0974,3000.0,48.0,16.0
2000,São Domingos do Norte - ES,ES,3204658,-19.1452,-40.6281,1200.0,6.48,5.4
2000,São Gabriel da Palha - ES,ES,3204708,-19.0182,-40.5365,1560.0,19.5,12.5
2000,São José do Calçado - ES,ES,3204807,-21.0274,-41.6636,1583.0,5.463,3.45
2000,São Mateus - ES,ES,3204906,-18.7214,-39.8579,2000.0,24.0,12.0
2000,São Roque do Canaã - ES,ES,3204955,-19.7411,-40.6526,1393.0,8.64,6.2
2000,Vargem Alta - ES,ES,3205036,-20.669,-41.0179,1204.0,20.835,17.3
2000,Venda Nova do Imigrante - ES,ES,3205069,-20.327,-41.1355,2580.0,9.03,3.5
2000,Viana - ES,ES,3205101,-20.3825,-40.4933,1988.0,1.054,0.53
2000,Vila Pavão - ES,ES,3205150,-18.6091,-40.609,2659.0,25.261,9.5
2000,Vila Valério - ES,ES,3205176,-18.9958,-40.3849,1500.0,22.5,15.0
2000,Vila Velha - ES,ES,3205200,-20.3417,-40.2875,1000.0,0.04,0.04
2000,Água Doce do Norte - ES,ES,3200169,-18.5482,-40.9854,706.0,7.846,11.1
2000,Águia Branca - ES,ES,3200136,-18.9846,-40.7437,1440.0,11.016,7.65
2000,Abadia dos Dourados - MG,MG,3100104,-18.4831,-47.3916,1500.0,0.15,0.1
2000,Abaeté - MG,MG,3100203,-19.1551,-45.4444,1233.0,0.037,0.03
2000,Abre Campo - MG,MG,3100302,-20.2996,-42.4743,1800.0,11.16,6.2
2000,Acaiaca - MG,MG,3100401,-20.359,-43.1439,714.0,0.01,0.014
2000,Aguanil - MG,MG,3100807,-20.9439,-45.3915,1300.0,1.17,0.9
2000,Aimorés - MG,MG,3101102,-19.5007,-41.0746,1200.0,1.8,1.5
2000,Aiuruoca - MG,MG,3101201,-21.9736,-44.6042,1714.0,0.072,0.042
2000,Alagoa - MG,MG,3101300,-22.171,-44.6413,1000.0,0.001,0.001
2000,Albertina - MG,MG,3101409,-22.2018,-46.6139,1300.0,1.235,0.95
2000,Alfenas - MG,MG,3101607,-21.4256,-45.9477,2400.0,30.0,12.5
2000,Almenara - MG,MG,3101706,-16.1785,-40.6942,472.0,0.22,0.466
2000,Alpinópolis - MG,MG,3101904,-20.8631,-46.3878,1320.0,4.62,3.5
2000,Alterosa - MG,MG,3102001,-21.2488,-46.1387,2400.0,4.8,2.0
2000,Alto Caparaó - MG,MG,3102050,-20.431,-41.8738,1200.0,3.84,3.2
2000,Alto Jequitibá - MG,MG,3153509,-20.4208,-41.967,1320.0,5.016,3.8
2000,Alto Rio Doce - MG,MG,3102100,-21.0281,-43.4067,793.0,0.073,0.092
2000,Alvarenga - MG,MG,3102209,-19.4174,-41.7317,1200.0,0.972,0.81
2000,Alvinópolis - MG,MG,3102308,-20.1098,-43.0535,1730.0,0.045,0.026
2000,Alvorada de Minas - MG,MG,3102407,-18.7334,-43.3638,1000.0,0.035,0.035
2000,Além Paraíba - MG,MG,3101508,-21.8797,-42.7176,1000.0,0.006,0.006
2000,Amparo do Serra - MG,MG,3102506,-20.5051,-42.8009,900.0,1.125,1.25
2000,Andradas - MG,MG,3102605,-22.0695,-46.5724,2160.0,17.82,8.25
2000,Andrelândia - MG,MG,3102803,-21.7411,-44.3117,1000.0,0.028,0.028
2000,Angelândia - MG,MG,3102852,-17.7279,-42.2641,2400.0,10.68,4.45
2000,Antônio Dias - MG,MG,3103009,-19.6491,-42.8732,791.0,0.057,0.072
2000,Antônio Prado de Minas - MG,MG,3103108,-21.0192,-42.1109,1505.0,0.14,0.093
2000,Aracitaba - MG,MG,3103306,-21.3446,-43.3736,965.0,0.084,0.087
2000,Araguari - MG,MG,3103504,-18.6456,-48.1934,2658.0,34.554,18.0
2000,Arantina - MG,MG,3103603,-21.9102,-44.2555,1000.0,0.001,0.001
2000,Araponga - MG,MG,3103702,-20.6686,-42.5178,1500.0,4.068,2.712
2000,Arapuá - MG,MG,3103801,-19.0268,-46.1484,3600.0,3.06,0.85
2000,Araxá - MG,MG,3104007,-19.5902,-46.9438,2639.0,7.207,2.73
2000,Araçuaí - MG,MG,3103405,-16.8523,-42.0637,800.0,0.008,0.01
2000,Araújos - MG,MG,3103900,-19.9405,-45.1671,1107.0,0.031,0.028
2000,Arceburgo - MG,MG,3104106,-21.359,-46.9401,1155.0,3.003,2.6
2000,Arcos - MG,MG,3104205,-20.2863,-45.5373,600.0,0.024,0.04
2000,Areado - MG,MG,3104304,-21.3572,-46.1421,2200.0,6.27,2.85
2000,Argirita - MG,MG,3104403,-21.6083,-42.8292,700.0,0.014,0.02
2000,Aricanduva - MG,MG,3104452,-17.8666,-42.5533,2400.0,1.296,0.54
2000,Astolfo Dutra - MG,MG,3104601,-21.3184,-42.8572,723.0,0.094,0.13
2000,Ataléia - MG,MG,3104700,-18.0438,-41.1149,600.0,0.3,0.5
2000,Augusto de Lima - MG,MG,3104809,-18.0997,-44.2655,1000.0,0.003,0.003
2000,Açucena - MG,MG,3100500,-19.0671,-42.5419,607.0,0.079,0.13
2000,Baependi - MG,MG,3104908,-21.957,-44.8874,2500.0,3.0,1.2
2000,Bambuí - MG,MG,3105103,-20.0166,-45.9754,565.0,1.452,2.566
2000,Bandeira - MG,MG,3105202,-15.8783,-40.5622,1094.0,0.116,0.106
2000,Bandeira do Sul - MG,MG,3105301,-21.7308,-46.3833,1560.0,1.092,0.7
2000,Barra Longa - MG,MG,3105707,-20.2869,-43.0402,900.0,0.108,0.12
2000,Barão de Cocais - MG,MG,3105400,-19.9389,-43.4755,1156.0,0.037,0.032
2000,Bela Vista de Minas - MG,MG,3106002,-19.8302,-43.0922,1600.0,0.008,0.005
2000,Belmiro Braga - MG,MG,3106101,-21.944,-43.4084,971.0,0.034,0.035
2000,Belo Oriente - MG,MG,3106309,-19.2199,-42.4828,500.0,0.021,0.042
2000,Belo Vale - MG,MG,3106408,-20.4077,-44.0275,795.0,0.07,0.088
2000,Berilo - MG,MG,3106507,-16.9567,-42.4606,1000.0,0.15,0.15
2000,Berizal - MG,MG,3106655,-15.61,-41.7432,360.0,0.009,0.025
2000,Bertópolis - MG,MG,3106606,-17.059,-40.58,980.0,0.098,0.1
2000,Betim - MG,MG,3106705,-19.9668,-44.2008,1000.0,0.006,0.006
2000,Bias Fortes - MG,MG,3106804,-21.602,-43.7574,818.0,0.018,0.022
2000,Bicas - MG,MG,3106903,-21.7232,-43.056,1333.0,0.056,0.042
2000,Boa Esperança - MG,MG,3107109,-21.0927,-45.5612,1620.0,21.87,13.5
2000,Bocaina de Minas - MG,MG,3107208,-22.1697,-44.3972,1000.0,0.001,0.001
2000,Bocaiúva - MG,MG,3107307,-17.1135,-43.8104,1200.0,0.18,0.15
2000,Bom Despacho - MG,MG,3107406,-19.7386,-45.2622,3595.0,0.302,0.084
2000,Bom Jardim de Minas - MG,MG,3107505,-21.9479,-44.1885,1000.0,0.003,0.003
2000,Bom Jesus da Penha - MG,MG,3107604,-21.0148,-46.5174,2160.0,3.672,1.7
2000,Bom Jesus do Amparo - MG,MG,3107703,-19.7054,-43.4782,1101.0,0.38,0.345
2000,Bom Jesus do Galho - MG,MG,3107802,-19.836,-42.3165,1560.0,5.46,3.5
2000,Bom Repouso - MG,MG,3107901,-22.4675,-46.144,1333.0,0.004,0.003
2000,Bom Sucesso - MG,MG,3108008,-21.0329,-44.7537,1560.0,5.866,3.76
2000,Bonfim - MG,MG,3108107,-20.3302,-44.2366,800.0,0.012,0.015
2000,Bonfinópolis de Minas - MG,MG,3108206,-16.568,-45.9839,4800.0,0.72,0.15
2000,Bonito de Minas - MG,MG,3108255,-15.3231,-44.7543,500.0,0.001,0.002
2000,Borda da Mata - MG,MG,3108305,-22.2707,-46.1653,1300.0,1.04,0.8
2000,Botelhos - MG,MG,3108404,-21.6412,-46.391,2400.0,26.4,11.0
2000,Botumirim - MG,MG,3108503,-16.8657,-43.0086,500.0,0.21,0.42
2000,Brasília de Minas - MG,MG,3108602,-16.2104,-44.4299,1000.0,0.01,0.01
2000,Brazópolis - MG,MG,3108909,-22.4743,-45.6166,600.0,0.66,1.1
2000,Braúnas - MG,MG,3108800,-19.0562,-42.7099,431.0,0.063,0.146
2000,Brumadinho - MG,MG,3109006,-20.151,-44.2007,700.0,0.021,0.03
2000,Brás Pires - MG,MG,3108701,-20.8419,-43.2406,1078.0,0.248,0.23
2000,Bueno Brandão - MG,MG,3109105,-22.4383,-46.3491,1300.0,2.34,1.8
2000,Bugre - MG,MG,3109253,-19.4231,-42.2552,496.0,0.073,0.147
2000,Buritizeiro - MG,MG,3109402,-17.3656,-44.9606,1000.0,0.017,0.017
2000,Cabeceira Grande - MG,MG,3109451,-16.0335,-47.0862,3596.0,0.374,0.104
2000,Cabo Verde - MG,MG,3109501,-21.4699,-46.3919,1287.0,11.892,9.24
2000,Cachoeira da Prata - MG,MG,3109600,-19.521,-44.4544,1500.0,0.003,0.002
2000,Cachoeira de Minas - MG,MG,3109709,-22.3511,-45.7809,1560.0,3.479,2.23
2000,Cachoeira de Pajeú - MG,MG,3102704,-15.9688,-41.4948,812.0,0.203,0.25
2000,Caetanópolis - MG,MG,3109907,-19.2971,-44.4189,1000.0,0.002,0.002
2000,Caeté - MG,MG,3110004,-19.8826,-43.6704,1096.0,0.057,0.052
2000,Caiana - MG,MG,3110103,-20.6956,-41.9292,1210.0,3.63,3.0
2000,Cajuri - MG,MG,3110202,-20.7903,-42.7925,1500.0,1.005,0.67
2000,Caldas - MG,MG,3110301,-21.9183,-46.3843,1200.0,0.6,0.5
2000,Camacho - MG,MG,3110400,-20.6294,-45.1593,1140.0,1.596,1.4
2000,Cambuquira - MG,MG,3110707,-21.854,-45.2896,1800.0,7.2,4.0
2000,Cambuí - MG,MG,3110608,-22.6115,-46.0572,1500.0,0.054,0.036
2000,Campanha - MG,MG,3110905,-21.836,-45.4004,1800.0,4.86,2.7
2000,Campanário - MG,MG,3110806,-18.2427,-41.7355,500.0,0.001,0.002
2000,Campestre - MG,MG,3111002,-21.7079,-46.2381,2160.0,28.728,13.3
2000,Campo Belo - MG,MG,3111200,-20.8932,-45.2699,1600.0,8.448,5.28
2000,Campo Florido - MG,MG,3111408,-19.7631,-48.5716,850.0,0.102,0.12
2000,Campo do Meio - MG,MG,3111309,-21.1127,-45.8273,2160.0,8.64,4.0
2000,Campos Altos - MG,MG,3111507,-19.6914,-46.1725,2880.0,19.584,6.8
2000,Campos Gerais - MG,MG,3111606,-21.237,-45.7569,2625.0,42.0,16.0
2000,Cana Verde - MG,MG,3111903,-21.0232,-45.1801,1720.0,2.752,1.6
2000,Canaã - MG,MG,3111705,-20.6869,-42.6167,1499.0,2.107,1.405
2000,Candeias - MG,MG,3112000,-20.7692,-45.2765,1850.0,6.475,3.5
2000,Cantagalo - MG,MG,3112059,-18.5248,-42.6223,1000.0,0.015,0.015
2000,Canápolis - MG,MG,3111804,-18.7212,-49.2035,1200.0,0.48,0.4
2000,Caparaó - MG,MG,3112109,-20.5289,-41.9061,1250.0,3.0,2.4
2000,Capela Nova - MG,MG,3112208,-20.9179,-43.622,800.0,0.044,0.083
2000,Capelinha - MG,MG,3112307,-17.6888,-42.5147,2400.0,23.808,9.92
2000,Capetinga - MG,MG,3112406,-20.6163,-47.0571,2807.0,5.638,2.008
2000,Capim Branco - MG,MG,3112505,-19.5471,-44.1304,2000.0,0.002,0.001
2000,Capitão Andrade - MG,MG,3112653,-19.0748,-41.8614,800.0,0.008,0.01
2000,Capitão Enéas - MG,MG,3112703,-16.3265,-43.7084,666.0,0.002,0.003
2000,Capitólio - MG,MG,3112802,-20.6164,-46.0493,1739.0,3.72,2.138
2000,Caputira - MG,MG,3112901,-20.1703,-42.2683,1200.0,3.6,3.0
2000,Caranaíba - MG,MG,3113107,-20.8707,-43.7417,800.0,0.02,0.025
2000,Carandaí - MG,MG,3113206,-20.9566,-43.811,1000.0,0.009,0.009
2000,Carangola - MG,MG,3113305,-20.7343,-42.0313,1200.0,6.18,5.15
2000,Caratinga - MG,MG,3113404,-19.7868,-42.1292,1440.0,10.08,7.0
2000,Caraí - MG,MG,3113008,-17.1862,-41.7004,750.0,2.85,3.8
2000,Carbonita - MG,MG,3113503,-17.5255,-43.0137,1500.0,0.18,0.12
2000,Careaçu - MG,MG,3113602,-22.0424,-45.696,2685.0,2.581,0.961
2000,Carlos Chagas - MG,MG,3113701,-17.6973,-40.7723,1000.0,0.005,0.005
2000,Carmo da Cachoeira - MG,MG,3113909,-21.4633,-45.2201,1800.0,14.4,8.0
2000,Carmo da Mata - MG,MG,3114006,-20.5575,-44.8735,1100.0,0.99,0.9
2000,Carmo de Minas - MG,MG,3114105,-22.1204,-45.1307,2799.0,10.889,3.889
2000,Carmo do Cajuru - MG,MG,3114204,-20.1912,-44.7664,1100.0,0.055,0.05
2000,Carmo do Paranaíba - MG,MG,3114303,-18.991,-46.3167,2640.0,22.44,8.5
2000,Carmo do Rio Claro - MG,MG,3114402,-20.9736,-46.1149,2160.0,30.24,14.0
2000,Carmésia - MG,MG,3113800,-19.0877,-43.1382,1100.0,0.033,0.03
2000,Carmópolis de Minas - MG,MG,3114501,-20.5396,-44.6336,750.0,0.3,0.4
2000,Carrancas - MG,MG,3114600,-21.4898,-44.6446,2400.0,0.12,0.05
2000,Carvalhos - MG,MG,3114808,-22.0,-44.4632,1000.0,0.003,0.003
2000,Carvalhópolis - MG,MG,3114709,-21.7735,-45.8421,1600.0,2.4,1.5
2000,Casa Grande - MG,MG,3114907,-20.7925,-43.9343,800.0,0.024,0.05
2000,Cascalho Rico - MG,MG,3115003,-18.5772,-47.8716,3000.0,1.95,0.797
2000,Catas Altas - MG,MG,3115359,-20.0734,-43.4061,1120.0,0.028,0.025
2000,Catas Altas da Noruega - MG,MG,3115409,-20.6901,-43.4939,800.0,0.02,0.025
2000,Catuji - MG,MG,3115458,-17.3018,-41.5276,800.0,0.96,1.2
2000,Caxambu - MG,MG,3115508,-21.9753,-44.9319,2796.0,0.632,0.226
2000,Central de Minas - MG,MG,3115706,-18.7612,-41.3143,240.0,0.06,0.25
2000,Chalé - MG,MG,3116001,-20.0453,-41.6897,1199.0,2.017,1.681
2000,Chapada Gaúcha - MG,MG,3116159,-15.3014,-45.6116,3000.0,0.225,0.075
2000,Chapada do Norte - MG,MG,3116100,-17.0881,-42.5392,1000.0,0.02,0.02
2000,Chiador - MG,MG,3116209,-21.9996,-43.0617,625.0,0.005,0.008
2000,Chácara - MG,MG,3115904,-21.6733,-43.215,400.0,0.002,0.005
2000,Cipotânea - MG,MG,3116308,-20.9026,-43.3629,851.0,0.04,0.047
2000,Claraval - MG,MG,3116407,-20.397,-47.2768,1800.0,2.808,1.56
2000,Claro dos Poções - MG,MG,3116506,-17.082,-44.2061,800.0,0.004,0.005
2000,Cláudio - MG,MG,3116605,-20.4437,-44.7673,1100.0,0.517,0.47
2000,Coimbra - MG,MG,3116704,-20.8535,-42.8008,899.0,0.357,0.397
2000,Coluna - MG,MG,3116803,-18.2311,-42.8352,1200.0,0.06,0.05
2000,Comercinho - MG,MG,3117009,-16.2963,-41.7945,810.0,0.162,0.2
2000,Conceição da Aparecida - MG,MG,3117108,-21.096,-46.2049,1800.0,13.5,7.5
2000,Conceição da Barra de Minas - MG,MG,3115201,-21.1316,-44.4729,900.0,0.045,0.05
2000,Conceição das Pedras - MG,MG,3117207,-22.1576,-45.4562,1500.0,2.85,1.9
2000,Conceição de Ipanema - MG,MG,3117405,-19.9326,-41.6908,900.0,0.63,0.7
2000,Conceição do Mato Dentro - MG,MG,3117504,-19.0344,-43.4221,1200.0,0.24,0.2
2000,Conceição do Rio Verde - MG,MG,3117702,-21.8778,-45.087,1800.0,5.364,2.98
2000,Conceição dos Ouros - MG,MG,3117801,-22.4078,-45.7996,1800.0,1.44,0.8
2000,Confins - MG,MG,3117876,-19.6282,-43.9931,2000.0,0.042,0.021
2000,Congonhal - MG,MG,3117900,-22.1488,-46.043,1227.0,0.227,0.185
2000,Congonhas - MG,MG,3118007,-20.4958,-43.851,800.0,0.028,0.035
2000,Congonhas do Norte - MG,MG,3118106,-18.8021,-43.6767,600.0,0.036,0.06
2000,Conquista - MG,MG,3118205,-19.9312,-47.5492,954.0,0.105,0.11
2000,Conselheiro Lafaiete - MG,MG,3118304,-20.6634,-43.7846,1000.0,0.002,0.002
2000,Conselheiro Pena - MG,MG,3118403,-19.1789,-41.4736,1800.0,4.5,2.5
2000,Consolação - MG,MG,3118502,-22.5493,-45.9255,1500.0,0.075,0.05
2000,Coqueiral - MG,MG,3118700,-21.1858,-45.4366,1200.0,6.6,5.5
2000,Coração de Jesus - MG,MG,3118809,-16.6841,-44.3635,600.0,0.024,0.04
2000,Cordisburgo - MG,MG,3118908,-19.1224,-44.3224,1000.0,0.003,0.003
2000,Cordislândia - MG,MG,3119005,-21.7891,-45.6999,1200.0,1.08,0.9
2000,Coroaci - MG,MG,3119203,-18.6156,-42.2791,800.0,0.2,0.25
2000,Coromandel - MG,MG,3119302,-18.4734,-47.1933,1647.0,24.225,14.7
2000,Coronel Fabriciano - MG,MG,3119401,-19.5179,-42.6276,137.0,0.007,0.051
2000,Coronel Murta - MG,MG,3119500,-16.6148,-42.184,800.0,0.012,0.015
2000,Coronel Pacheco - MG,MG,3119609,-21.5898,-43.256,800.0,0.008,0.01
2000,Coronel Xavier Chaves - MG,MG,3119708,-21.0277,-44.2206,900.0,0.027,0.03
2000,Couto de Magalhães de Minas - MG,MG,3120102,-18.0727,-43.4648,400.0,0.02,0.083
2000,Cristais - MG,MG,3120201,-20.8733,-45.5167,1900.0,9.88,5.2
2000,Cristina - MG,MG,3120508,-22.208,-45.2673,2400.0,2.4,1.0
2000,Cristália - MG,MG,3120300,-16.716,-42.8571,600.0,0.012,0.02
2000,Crisólita - MG,MG,3120151,-17.2381,-40.9184,985.0,0.069,0.07
2000,Crucilândia - MG,MG,3120607,-20.3923,-44.3334,750.0,0.06,0.08
2000,Cruzeiro da Fortaleza - MG,MG,3120706,-18.944,-46.6669,1824.0,0.684,0.375
2000,Cruzília - MG,MG,3120805,-21.84,-44.8067,2995.0,2.007,0.67
2000,Cuparaque - MG,MG,3120839,-18.9648,-41.0986,2400.0,0.888,0.37
2000,Curral de Dentro - MG,MG,3120870,-15.9327,-41.8557,800.0,0.016,0.02
2000,Cássia - MG,MG,3115102,-20.5831,-46.9201,1440.0,5.904,4.1
2000,Córrego Danta - MG,MG,3119807,-19.8198,-45.9032,900.0,0.387,0.43
2000,Córrego Fundo - MG,MG,3119955,-20.4474,-45.5617,838.0,0.218,0.26
2000,Córrego Novo - MG,MG,3120003,-19.8361,-42.3988,1440.0,0.072,0.05
2000,Córrego do Bom Jesus - MG,MG,3119906,-22.6269,-46.0241,1500.0,0.003,0.002
2000,Cônego Marinho - MG,MG,3117836,-15.2892,-44.4181,500.0,0.002,0.004
2000,Datas - MG,MG,3121001,-18.4478,-43.6591,666.0,0.004,0.016
2000,Delfim Moreira - MG,MG,3121100,-22.5036,-45.2792,1333.0,0.004,0.003
2000,Delfinópolis - MG,MG,3121209,-20.3468,-46.8456,3000.0,1.74,0.58
2000,Descoberto - MG,MG,3121308,-21.46,-42.9618,1200.0,0.132,0.11
2000,Desterro de Entre Rios - MG,MG,3121407,-20.665,-44.3334,770.0,0.134,0.174
2000,Desterro do Melo - MG,MG,3121506,-21.143,-43.5178,950.0,0.038,0.04
2000,Diamantina - MG,MG,3121605,-18.2413,-43.6031,600.0,0.102,0.17
2000,Diogo de Vasconcelos - MG,MG,3121704,-20.4879,-43.1953,676.0,0.048,0.071
2000,Dionísio - MG,MG,3121803,-19.8433,-42.7701,1600.0,0.12,0.075
2000,Divino - MG,MG,3122009,-20.6134,-42.1438,1260.0,11.844,9.4
2000,Divino das Laranjeiras - MG,MG,3122108,-18.7755,-41.4781,428.0,0.012,0.028
2000,Divinolândia de Minas - MG,MG,3122207,-18.8004,-42.6103,1194.0,0.043,0.036
2000,Divinésia - MG,MG,3121902,-20.9917,-43.0003,957.0,0.134,0.14
2000,Divinópolis - MG,MG,3122306,-20.1446,-44.8912,1100.0,0.44,0.4
2000,Divisa Alegre - MG,MG,3122355,-15.7221,-41.3463,800.0,0.024,0.03
2000,Divisa Nova - MG,MG,3122405,-21.5092,-46.1904,1200.0,3.18,2.65
2000,Divisópolis - MG,MG,3122454,-15.7254,-40.9997,1633.0,2.058,1.26
2000,Dom Cavati - MG,MG,3122504,-19.3735,-42.1121,1200.0,0.18,0.15
2000,Dom Joaquim - MG,MG,3122603,-18.961,-43.2544,800.0,0.016,0.02
2000,Dom Silvério - MG,MG,3122702,-20.1627,-42.9627,1617.0,0.055,0.034
2000,Dom Viçoso - MG,MG,3122801,-22.2511,-45.1643,3000.0,0.9,0.3
2000,Dores de Guanhães - MG,MG,3123106,-19.0516,-42.9254,1111.0,0.01,0.009
2000,Dores do Indaiá - MG,MG,3123205,-19.4628,-45.5927,1000.0,0.006,0.006
2000,Dores do Turvo - MG,MG,3123304,-20.9785,-43.1834,2500.0,0.875,0.35
2000,Doresópolis - MG,MG,3123403,-20.2868,-45.9007,1559.0,0.683,0.438
2000,Douradoquara - MG,MG,3123502,-18.4338,-47.5993,1200.0,0.048,0.071
2000,Durandé - MG,MG,3123528,-20.2058,-41.7977,1200.0,10.38,8.65
2000,Elói Mendes - MG,MG,3123601,-21.6088,-45.5691,1440.0,11.232,7.8
2000,Engenheiro Caldas - MG,MG,3123700,-19.2065,-42.0503,826.0,0.019,0.023
2000,Engenheiro Navarro - MG,MG,3123809,-17.2831,-43.947,500.0,0.002,0.004
2000,Entre Folhas - MG,MG,3123858,-19.6218,-42.2306,1440.0,0.634,0.44
2000,Entre Rios de Minas - MG,MG,3123908,-20.6706,-44.0654,800.0,0.04,0.05
2000,Ervália - MG,MG,3124005,-20.8403,-42.6544,899.0,5.743,6.382
2000,Esmeraldas - MG,MG,3124104,-19.764,-44.3065,1000.0,0.06,0.06
2000,Espera Feliz - MG,MG,3124203,-20.6508,-41.9119,1300.0,12.805,9.85
2000,Espinosa - MG,MG,3124302,-14.9249,-42.809,1000.0,0.002,0.002
2000,Espírito Santo do Dourado - MG,MG,3124401,-22.0454,-45.9548,1200.0,1.92,1.6
2000,Estiva - MG,MG,3124500,-22.4577,-46.0191,1500.0,0.09,0.06
2000,Estrela Dalva - MG,MG,3124609,-21.7412,-42.4574,1000.0,0.001,0.001
2000,Estrela do Indaiá - MG,MG,3124708,-19.5169,-45.7859,1271.0,0.075,0.059
2000,Estrela do Sul - MG,MG,3124807,-18.7399,-47.6956,2340.0,4.212,1.8
2000,Eugenópolis - MG,MG,3124906,-21.1002,-42.1878,1500.0,1.695,1.13
2000,Extrema - MG,MG,3125101,-22.854,-46.3178,1500.0,0.03,0.02
2000,Fama - MG,MG,3125200,-21.4089,-45.8286,2760.0,3.312,1.2
2000,Faria Lemos - MG,MG,3125309,-20.8097,-42.0213,1000.0,1.03,1.03
2000,Felisburgo - MG,MG,3125606,-16.6348,-40.7605,803.0,0.208,0.259
2000,Felício dos Santos - MG,MG,3125408,-18.0755,-43.2422,602.0,0.05,0.121
2000,Fernandes Tourinho - MG,MG,3125804,-19.1541,-42.0803,789.0,0.015,0.019
2000,Ferros - MG,MG,3125903,-19.2343,-43.0192,1101.0,0.336,0.305
2000,Fervedouro - MG,MG,3125952,-20.726,-42.279,1200.0,4.644,3.87
2000,Florestal - MG,MG,3126000,-19.888,-44.4318,1612.0,0.05,0.031
2000,Formiga - MG,MG,3126109,-20.4618,-45.4268,840.0,3.36,4.0
2000,Formoso - MG,MG,3126208,-14.9446,-46.2371,2396.0,0.254,0.106
2000,Fortaleza de Minas - MG,MG,3126307,-20.8508,-46.712,1440.0,1.659,1.152
2000,Fortuna de Minas - MG,MG,3126406,-19.5578,-44.4472,1500.0,0.003,0.002
2000,Francisco Badaró - MG,MG,3126505,-16.9883,-42.3568,800.0,0.004,0.005
2000,Francisco Dumont - MG,MG,3126604,-17.3107,-44.2317,500.0,0.002,0.004
2000,Francisco Sá - MG,MG,3126703,-16.4827,-43.4896,500.0,0.011,0.022
2000,Franciscópolis - MG,MG,3126752,-17.9578,-42.0094,600.0,0.24,0.4
2000,Frei Gaspar - MG,MG,3126802,-18.0709,-41.4325,600.0,0.36,0.6
2000,Frei Lagonegro - MG,MG,3126950,-18.1751,-42.7617,800.0,0.012,0.015
2000,Fronteira dos Vales - MG,MG,3127057,-16.8898,-40.923,966.0,0.029,0.03
2000,Fruta de Leite - MG,MG,3127073,-16.1225,-42.5288,2000.0,0.048,0.024
2000,Galiléia - MG,MG,3127305,-19.0005,-41.5387,796.0,0.086,0.108
2000,Glaucilândia - MG,MG,3127354,-16.8481,-43.692,700.0,0.007,0.01
2000,Goiabeira - MG,MG,3127370,-18.9807,-41.2235,800.0,0.008,0.01
2000,Gonzaga - MG,MG,3127503,-18.8196,-42.4769,800.0,0.064,0.08
2000,Gonçalves - MG,MG,3127404,-22.6545,-45.8556,1500.0,0.006,0.004
2000,Gouveia - MG,MG,3127602,-18.4519,-43.7423,400.0,0.018,0.045
2000,Grupiara - MG,MG,3127909,-18.5003,-47.7318,1481.0,0.04,0.027
2000,Grão Mogol - MG,MG,3127800,-16.5662,-42.8923,600.0,0.048,0.08
2000,Guanhães - MG,MG,3128006,-18.7713,-42.9312,1200.0,0.096,0.08
2000,Guapé - MG,MG,3128105,-20.7631,-45.9152,2400.0,14.4,6.0
2000,Guaraciaba - MG,MG,3128204,-20.5716,-43.0094,900.0,1.53,1.7
2000,Guaraciama - MG,MG,3128253,-17.0142,-43.6675,1000.0,0.02,0.02
2000,Guarani - MG,MG,3128402,-21.3563,-43.0328,1200.0,0.048,0.04
2000,Guaranésia - MG,MG,3128303,-21.3009,-46.7964,770.0,3.388,4.4
2000,Guarará - MG,MG,3128501,-21.7304,-43.0334,1500.0,0.06,0.04
2000,Guarda-Mor - MG,MG,3128600,-17.7673,-47.0998,1451.0,0.98,0.675
2000,Guaxupé - MG,MG,3128709,-21.305,-46.7081,1188.0,7.722,6.5
2000,Guidoval - MG,MG,3128808,-21.155,-42.7887,500.0,0.002,0.004
2000,Guimarânia - MG,MG,3128907,-18.8425,-46.7901,3000.0,3.21,1.07
2000,Guiricema - MG,MG,3129004,-21.0098,-42.7207,959.0,0.499,0.52
2000,Heliodora - MG,MG,3129202,-22.0644,-45.5453,1700.0,2.958,1.74
2000,Iapu - MG,MG,3129301,-19.4387,-42.2147,498.0,0.172,0.345
2000,Ibertioga - MG,MG,3129400,-21.433,-43.9639,875.0,0.007,0.008
2000,Ibiraci - MG,MG,3129707,-20.4611,-47.1222,2400.0,16.2,6.75
2000,Ibirité - MG,MG,3129806,-20.0252,-44.0569,1000.0,0.002,0.002
2000,Ibitiúra de Minas - MG,MG,3129905,-22.0604,-46.4368,1300.0,1.82,1.4
2000,Ibituruna - MG,MG,3130002,-21.1541,-44.7479,1680.0,1.008,0.6
2000,Ibiá - MG,MG,3129509,-19.4749,-46.5474,2160.0,5.94,2.75
2000,Igarapé - MG,MG,3130101,-20.0707,-44.2994,500.0,0.005,0.01
2000,Igaratinga - MG,MG,3130200,-19.9476,-44.7063,1600.0,0.008,0.005
2000,Iguatama - MG,MG,3130309,-20.1776,-45.7111,720.0,0.072,0.1
2000,Ijaci - MG,MG,3130408,-21.1738,-44.9233,2060.0,0.886,0.43
2000,Ilicínea - MG,MG,3130507,-20.9402,-45.8308,1900.0,9.975,5.25
2000,Imbé de Minas - MG,MG,3130556,-19.6017,-41.9695,1440.0,1.728,1.2
2000,Inconfidentes - MG,MG,3130606,-22.3136,-46.3264,1300.0,1.56,1.2
2000,Indaiabira - MG,MG,3130655,-15.4911,-42.2005,1800.0,0.27,0.15
2000,Indianópolis - MG,MG,3130705,-19.0341,-47.9155,2760.0,6.707,2.5
2000,Ingaí - MG,MG,3130804,-21.4024,-44.9152,2400.0,0.456,0.19
2000,Inhapim - MG,MG,3130903,-19.5476,-42.1147,1100.0,0.99,0.9
2000,Inhaúma - MG,MG,3131000,-19.4898,-44.3934,1200.0,0.072,0.06
2000,Ipaba - MG,MG,3131158,-19.4158,-42.4139,375.0,0.015,0.04
2000,Ipanema - MG,MG,3131208,-19.7992,-41.7164,1560.0,0.234,0.15
2000,Ipatinga - MG,MG,3131307,-19.4703,-42.5476,1257.0,0.083,0.066
2000,Iraí de Minas - MG,MG,3131604,-18.9819,-47.461,2340.0,3.744,1.6
2000,Itabira - MG,MG,3131703,-19.6239,-43.2312,1096.0,0.068,0.062
2000,Itabirinha - MG,MG,3131802,-18.5712,-41.234,420.0,0.654,1.557
2000,Itabirito - MG,MG,3131901,-20.2501,-43.8038,716.0,0.038,0.053
2000,Itacambira - MG,MG,3132008,-17.0625,-43.3069,500.0,0.095,0.19
2000,Itaguara - MG,MG,3132206,-20.3947,-44.4875,750.0,0.06,0.08
2000,Itaipé - MG,MG,3132305,-17.4014,-41.6697,998.0,5.694,5.7
2000,Itajubá - MG,MG,3132404,-22.4225,-45.4598,488.0,0.021,0.043
2000,Itamarandiba - MG,MG,3132503,-17.8552,-42.8561,2345.0,4.456,1.9
2000,Itamarati de Minas - MG,MG,3132602,-21.4179,-42.813,1800.0,0.189,0.105
2000,Itambacuri - MG,MG,3132701,-18.035,-41.683,600.0,0.36,0.6
2000,Itambé do Mato Dentro - MG,MG,3132800,-19.4158,-43.3182,1090.0,0.024,0.022
2000,Itamogi - MG,MG,3132909,-21.0758,-47.046,2700.0,17.55,6.5
2000,Itamonte - MG,MG,3133006,-22.2859,-44.868,1750.0,0.007,0.004
2000,Itanhandu - MG,MG,3133105,-22.2942,-44.9382,720.0,0.036,0.05
2000,Itanhomi - MG,MG,3133204,-19.1736,-41.863,798.0,0.246,0.308
2000,Itaobim - MG,MG,3133303,-16.5571,-41.5017,800.0,0.012,0.015
2000,Itapecerica - MG,MG,3133501,-20.4704,-45.127,900.0,0.477,0.53
2000,Itapeva - MG,MG,3133600,-22.7665,-46.2241,1250.0,0.005,0.004
2000,Itatiaiuçu - MG,MG,3133709,-20.1983,-44.4211,750.0,0.03,0.04
2000,Itaverava - MG,MG,3133907,-20.6769,-43.6141,800.0,0.032,0.04
2000,Itaú de Minas - MG,MG,3133758,-20.7375,-46.7525,1790.0,0.077,0.043
2000,Itaúna - MG,MG,3133808,-20.0818,-44.5801,750.0,0.06,0.08
2000,Itinga - MG,MG,3134004,-16.61,-41.7672,800.0,0.012,0.015
2000,Itueta - MG,MG,3134103,-19.3999,-41.1746,1080.0,2.808,2.6
2000,Itumirim - MG,MG,3134301,-21.3171,-44.8724,1200.0,0.3,0.25
2000,Itutinga - MG,MG,3134509,-21.3,-44.6567,2400.0,0.408,0.17
2000,Jacinto - MG,MG,3134707,-16.1428,-40.295,206.0,0.006,0.029
2000,Jacutinga - MG,MG,3134905,-22.286,-46.6166,1300.0,4.81,3.7
2000,Jacuí - MG,MG,3134806,-21.0137,-46.7359,1800.0,3.24,1.8
2000,Jaguaraçu - MG,MG,3135001,-19.647,-42.7498,166.0,0.001,0.006
2000,Januária - MG,MG,3135209,-15.4802,-44.3639,600.0,0.006,0.01
2000,Japaraíba - MG,MG,3135308,-20.1442,-45.5015,840.0,0.042,0.05
2000,Jeceaba - MG,MG,3135407,-20.5339,-43.9894,800.0,0.032,0.04
2000,Jenipapo de Minas - MG,MG,3135456,-17.0831,-42.2589,800.0,0.004,0.005
2000,Jequeri - MG,MG,3135506,-20.4542,-42.6651,900.0,2.07,2.3
2000,Jequitaí - MG,MG,3135605,-17.229,-44.4376,1000.0,0.001,0.001
2000,Jequitibá - MG,MG,3135704,-19.2345,-44.0304,1200.0,0.012,0.01
2000,Jequitinhonha - MG,MG,3135803,-16.4375,-41.0117,800.0,0.432,0.54
2000,Jesuânia - MG,MG,3135902,-21.9887,-45.2911,1200.0,1.26,1.05
2000,Joanésia - MG,MG,3136108,-19.1729,-42.6775,1333.0,0.016,0.012
2000,Joaíma - MG,MG,3136009,-16.6522,-41.0229,800.0,0.256,0.32
2000,Jordânia - MG,MG,3136504,-15.9009,-40.1841,400.0,0.004,0.01
2000,Josenópolis - MG,MG,3136579,-16.5417,-42.5151,500.0,0.004,0.008
2000,José Gonçalves de Minas - MG,MG,3136520,-16.9053,-42.6014,1500.0,0.45,0.3
2000,José Raydan - MG,MG,3136553,-18.2195,-42.4946,800.0,0.06,0.075
2000,João Monlevade - MG,MG,3136207,-19.8126,-43.1735,1750.0,0.014,0.008
2000,João Pinheiro - MG,MG,3136306,-17.7398,-46.1715,3600.0,2.988,0.83
2000,Juatuba - MG,MG,3136652,-19.9448,-44.3451,1000.0,0.001,0.001
2000,Juiz de Fora - MG,MG,3136702,-21.7595,-43.3398,1079.0,0.367,0.34
2000,Juramento - MG,MG,3136801,-16.8473,-43.5865,714.0,0.005,0.007
2000,Juruaia - MG,MG,3136900,-21.2493,-46.5735,660.0,2.376,3.6
2000,Ladainha - MG,MG,3137007,-17.6279,-41.7488,720.0,0.72,1.0
2000,Lagamar - MG,MG,3137106,-18.1759,-46.8063,2166.0,0.039,0.018
2000,Lagoa Dourada - MG,MG,3137403,-20.9139,-44.0797,904.0,0.038,0.042
2000,Lagoa Formosa - MG,MG,3137502,-18.7715,-46.4012,3600.0,2.369,0.658
2000,Lagoa Santa - MG,MG,3137601,-19.6397,-43.8932,571.0,0.004,0.007
2000,Lagoa da Prata - MG,MG,3137205,-20.0237,-45.5401,1600.0,0.24,0.15
2000,Lagoa dos Patos - MG,MG,3137304,-16.978,-44.5754,500.0,0.003,0.006
2000,Lajinha - MG,MG,3137700,-20.1539,-41.6228,1200.0,8.316,6.93
2000,Lambari - MG,MG,3137809,-21.9671,-45.3498,1002.0,4.81,4.8
2000,Lamim - MG,MG,3137908,-20.79,-43.4706,800.0,0.016,0.02
2000,Laranjal - MG,MG,3138005,-21.3715,-42.4732,1176.0,0.02,0.017
2000,Lavras - MG,MG,3138203,-21.248,-45.0009,2060.0,7.21,3.5
2000,Leme do Prado - MG,MG,3138351,-17.0793,-42.6936,1500.0,0.15,0.1
2000,Leopoldina - MG,MG,3138401,-21.5296,-42.6421,2000.0,0.07,0.035
2000,Liberdade - MG,MG,3138500,-22.0275,-44.3208,1000.0,0.004,0.004
2000,Lima Duarte - MG,MG,3138609,-21.8386,-43.7934,700.0,0.028,0.04
2000,Lontra - MG,MG,3138658,-15.9013,-44.306,1000.0,0.005,0.005
2000,Luisburgo - MG,MG,3138674,-20.4468,-42.0976,1200.0,6.0,5.0
2000,Luminárias - MG,MG,3138708,-21.5145,-44.9034,2640.0,3.168,1.2
2000,Luz - MG,MG,3138807,-19.7911,-45.6794,1300.0,1.742,1.34
2000,Machacalis - MG,MG,3138906,-17.0723,-40.7245,1000.0,0.008,0.008
2000,Machado - MG,MG,3139003,-21.6778,-45.9219,2160.0,32.4,15.0
2000,Madre de Deus de Minas - MG,MG,3139102,-21.483,-44.3287,1000.0,0.013,0.013
2000,Malacacheta - MG,MG,3139201,-17.8456,-42.0769,700.0,1.4,2.0
2000,Manhuaçu - MG,MG,3139409,-20.2572,-42.028,1320.0,17.424,13.2
2000,Manhumirim - MG,MG,3139508,-20.3591,-41.9589,1200.0,6.72,5.6
2000,Mantena - MG,MG,3139607,-18.7761,-40.9874,359.0,3.614,10.04
2000,Mar de Espanha - MG,MG,3139805,-21.8707,-43.0062,1097.0,0.079,0.072
2000,Maravilhas - MG,MG,3139706,-19.5076,-44.6779,1500.0,0.015,0.01
2000,Maria da Fé - MG,MG,3139904,-22.3044,-45.3773,800.0,0.04,0.05
2000,Mariana - MG,MG,3140001,-20.3765,-43.414,800.0,0.044,0.055
2000,Marilac - MG,MG,3140100,-18.5079,-42.0822,800.0,0.024,0.03
2000,Maripá de Minas - MG,MG,3140209,-21.6979,-42.9546,1189.0,0.044,0.037
2000,Marliéria - MG,MG,3140308,-19.7096,-42.7327,410.0,0.023,0.056
2000,Martinho Campos - MG,MG,3140506,-19.3306,-45.2434,1000.0,0.005,0.005
2000,Martins Soares - MG,MG,3140530,-20.2546,-41.8786,1200.0,2.46,2.05
2000,Mata Verde - MG,MG,3140555,-15.6869,-40.7366,1500.0,0.6,0.4
2000,Materlândia - MG,MG,3140605,-18.4699,-43.0579,1000.0,0.015,0.015
2000,Mateus Leme - MG,MG,3140704,-19.9794,-44.4318,750.0,0.255,0.34
2000,Matias Barbosa - MG,MG,3140803,-21.869,-43.3135,841.0,0.101,0.12
2000,Matipó - MG,MG,3140902,-20.2873,-42.3401,1199.0,5.377,4.481
2000,Matozinhos - MG,MG,3141108,-19.5543,-44.0868,1666.0,0.005,0.003
2000,Matutina - MG,MG,3141207,-19.2179,-45.9664,1800.0,0.45,0.25
2000,Medeiros - MG,MG,3141306,-19.9865,-46.2181,3527.0,2.787,0.79
2000,Medina - MG,MG,3141405,-16.2245,-41.4728,811.0,0.288,0.355
2000,Mendes Pimentel - MG,MG,3141504,-18.6631,-41.4052,420.0,0.103,0.245
2000,Mercês - MG,MG,3141603,-21.1976,-43.3337,600.0,0.048,0.08
2000,Mesquita - MG,MG,3141702,-19.224,-42.6079,1066.0,0.016,0.015
2000,Minas Novas - MG,MG,3141801,-17.2156,-42.5884,2000.0,3.0,1.5
2000,Minduri - MG,MG,3141900,-21.6797,-44.6051,3000.0,0.12,0.04
2000,Mirabela - MG,MG,3142007,-16.256,-44.1602,1000.0,0.039,0.039
2000,Miradouro - MG,MG,3142106,-20.8899,-42.3458,1200.0,1.98,1.65
2000,Miraí - MG,MG,3142205,-21.2021,-42.6122,1227.0,0.982,0.8
2000,Moeda - MG,MG,3142304,-20.3399,-44.0509,800.0,0.044,0.055
2000,Moema - MG,MG,3142403,-19.8387,-45.4127,1600.0,0.128,0.08
2000,Monjolos - MG,MG,3142502,-18.3245,-44.118,1000.0,0.005,0.005
2000,Monsenhor Paulo - MG,MG,3142601,-21.7579,-45.5391,1440.0,3.629,2.52
2000,Monte Alegre de Minas - MG,MG,3142809,-18.869,-48.881,1200.0,0.624,0.52
2000,Monte Azul - MG,MG,3142908,-15.1514,-42.8718,1000.0,0.01,0.01
2000,Monte Belo - MG,MG,3143005,-21.3271,-46.3635,2160.0,9.288,4.3
2000,Monte Carmelo - MG,MG,3143104,-18.7302,-47.4912,2340.0,30.42,13.0
2000,Monte Formoso - MG,MG,3143153,-16.8691,-41.2473,802.0,0.061,0.076
2000,Monte Santo de Minas - MG,MG,3143203,-21.1873,-46.9753,1799.0,16.729,9.294
2000,Monte Sião - MG,MG,3143401,-22.4335,-46.573,1300.0,4.55,3.5
2000,Montes Claros - MG,MG,3143302,-16.7282,-43.8578,700.0,0.028,0.04
2000,Morro do Pilar - MG,MG,3143708,-19.2236,-43.3795,600.0,0.003,0.005
2000,Munhoz - MG,MG,3143807,-22.6092,-46.362,1000.0,0.001,0.001
2000,Muriaé - MG,MG,3143906,-21.13,-42.3693,1500.0,2.475,1.65
2000,Mutum - MG,MG,3144003,-19.8121,-41.4407,2160.0,14.688,6.8
2000,Muzambinho - MG,MG,3144102,-21.3692,-46.5213,715.0,4.719,6.6
2000,Nacip Raydan - MG,MG,3144201,-18.4544,-42.2481,800.0,0.056,0.07
2000,Natércia - MG,MG,3144409,-22.1158,-45.5123,1255.0,2.07,1.649
2000,Nazareno - MG,MG,3144508,-21.2168,-44.6138,900.0,0.297,0.33
2000,Nepomuceno - MG,MG,3144607,-21.2324,-45.235,1560.0,24.96,16.0
2000,Ninheira - MG,MG,3144656,-15.3148,-41.7564,900.0,0.234,0.26
2000,Nova Belém - MG,MG,3144672,-18.4925,-41.1107,420.0,2.674,6.366
2000,Nova Era - MG,MG,3144706,-19.7577,-43.0333,1700.0,0.068,0.04
2000,Nova Módica - MG,MG,3144904,-18.4417,-41.4984,400.0,0.008,0.02
2000,Nova Ponte - MG,MG,3145000,-19.1461,-47.6779,2338.0,0.608,0.26
2000,Nova Resende - MG,MG,3145109,-21.1286,-46.4157,990.0,7.524,7.6
2000,Nova União - MG,MG,3136603,-19.6876,-43.583,1276.0,0.083,0.065
2000,Novo Cruzeiro - MG,MG,3145307,-17.4654,-41.8826,1000.0,5.3,5.3
2000,Novo Oriente de Minas - MG,MG,3145356,-17.4089,-41.2194,683.0,0.041,0.06
2000,Novorizonte - MG,MG,3145372,-16.0162,-42.4044,2000.0,0.02,0.01
2000,Olhos-d'Água - MG,MG,3145455,-17.3982,-43.5719,1000.0,0.02,0.02
2000,Oliveira - MG,MG,3145604,-20.6982,-44.829,1100.0,3.872,3.52
2000,Olímpio Noronha - MG,MG,3145505,-22.0685,-45.2657,1200.0,1.2,1.0
2000,Onça de Pitangui - MG,MG,3145802,-19.7276,-44.8058,1600.0,0.032,0.02
2000,Oratórios - MG,MG,3145851,-20.4298,-42.7977,900.0,0.225,0.25
2000,Orizânia - MG,MG,3145877,-20.5142,-42.1991,1219.0,7.283,5.97
2000,Ouro Branco - MG,MG,3145901,-20.5263,-43.6962,800.0,0.032,0.04
2000,Ouro Fino - MG,MG,3146008,-22.2779,-46.3716,1300.0,9.1,7.0
2000,Ouro Preto - MG,MG,3146107,-20.3796,-43.512,1062.0,0.085,0.08
2000,Ouro Verde de Minas - MG,MG,3146206,-18.0719,-41.2734,600.0,2.1,3.5
2000,Padre Carvalho - MG,MG,3146255,-16.3646,-42.5088,600.0,0.006,0.01
2000,Padre Paraíso - MG,MG,3146305,-17.0758,-41.4821,800.0,0.8,1.0
2000,Paineiras - MG,MG,3146404,-18.8993,-45.5321,1000.0,0.012,0.012
2000,Palma - MG,MG,3146701,-21.3748,-42.3123,1166.0,0.014,0.012
2000,Palmópolis - MG,MG,3146750,-16.7364,-40.4296,433.0,0.026,0.06
2000,Paracatu - MG,MG,3147006,-17.2252,-46.8711,1500.0,2.4,1.6
2000,Paraguaçu - MG,MG,3147204,-21.5465,-45.7374,1439.0,11.282,7.835
2000,Paraisópolis - MG,MG,3147303,-22.5539,-45.7803,1257.0,0.088,0.07
2000,Paraopeba - MG,MG,3147402,-19.2732,-44.4044,1166.0,0.021,0.018
2000,Pará de Minas - MG,MG,3147105,-19.8534,-44.6114,1500.0,0.36,0.24
2000,Passa Tempo - MG,MG,3147709,-20.6539,-44.4926,750.0,0.525,0.7
2000,Passa Vinte - MG,MG,3147808,-22.2097,-44.2344,1000.0,0.003,0.003
2000,Passabém - MG,MG,3147501,-19.3509,-43.1383,1250.0,0.005,0.004
2000,Passos - MG,MG,3147907,-20.7193,-46.609,2640.0,7.788,2.95
2000,Patis - MG,MG,3147956,-16.0773,-44.0787,4800.0,0.576,0.12
2000,Patos de Minas - MG,MG,3148004,-18.5699,-46.5013,3000.0,14.4,4.8
2000,Patrocínio - MG,MG,3148103,-18.9379,-46.9934,1823.0,58.003,31.8
2000,Patrocínio do Muriaé - MG,MG,3148202,-21.1544,-42.2125,1000.0,0.002,0.002
2000,Paula Cândido - MG,MG,3148301,-20.8754,-42.9752,1200.0,1.44,1.2
2000,Paulistas - MG,MG,3148400,-18.4276,-42.8628,1200.0,0.036,0.03
2000,Pedra Azul - MG,MG,3148707,-16.0086,-41.2909,812.0,0.406,0.5
2000,Pedra Bonita - MG,MG,3148756,-20.5219,-42.3304,1500.0,7.425,4.95
2000,Pedra Dourada - MG,MG,3149002,-20.8266,-42.1515,1200.0,0.984,0.82
2000,Pedra do Anta - MG,MG,3148806,-20.5968,-42.7123,899.0,0.653,0.726
2000,Pedra do Indaiá - MG,MG,3148905,-20.2563,-45.2107,1133.0,0.017,0.015
2000,Pedralva - MG,MG,3149101,-22.2386,-45.4654,3600.0,12.24,3.4
2000,Pedrinópolis - MG,MG,3149200,-19.2241,-47.4579,1836.0,0.09,0.049
2000,Pequeri - MG,MG,3149507,-21.8341,-43.1145,531.0,0.025,0.047
2000,Pequi - MG,MG,3149606,-19.6284,-44.6604,1500.0,0.03,0.02
2000,Perdigão - MG,MG,3149705,-19.9411,-45.078,1000.0,0.002,0.002
2000,Perdizes - MG,MG,3149804,-19.3434,-47.2963,1824.0,5.434,2.979
2000,Perdões - MG,MG,3149903,-21.0932,-45.0896,1680.0,5.04,3.0
2000,Pescador - MG,MG,3150000,-18.357,-41.6006,1000.0,0.002,0.002
2000,Peçanha - MG,MG,3148608,-18.5441,-42.5583,1200.0,0.18,0.15
2000,Piedade de Caratinga - MG,MG,3150158,-19.7593,-42.0756,1440.0,2.88,2.0
2000,Piedade de Ponte Nova - MG,MG,3150208,-20.2438,-42.7379,900.0,0.072,0.08
2000,Piedade do Rio Grande - MG,MG,3150307,-21.469,-44.1938,1000.0,0.025,0.025
2000,Piedade dos Gerais - MG,MG,3150406,-20.4715,-44.2243,1000.0,0.027,0.027
2000,Pimenta - MG,MG,3150505,-20.4827,-45.8049,2640.0,8.208,3.109
2000,Pingo-d'Água - MG,MG,3150539,-19.7287,-42.4095,1200.0,0.072,0.06
2000,Piracema - MG,MG,3150604,-20.5089,-44.4783,750.0,0.45,0.6
2000,Piranga - MG,MG,3150802,-20.6834,-43.2967,848.0,0.285,0.336
2000,Piranguinho - MG,MG,3151008,-22.395,-45.5324,2500.0,2.25,0.9
2000,Piranguçu - MG,MG,3150901,-22.5249,-45.4945,1500.0,0.06,0.04
2000,Pirapetinga - MG,MG,3151107,-21.6554,-42.3434,1000.0,0.024,0.024
2000,Piraúba - MG,MG,3151305,-21.2825,-43.0172,1200.0,0.012,0.01
2000,Pitangui - MG,MG,3151404,-19.6741,-44.8964,2500.0,0.025,0.01
2000,Piumhi - MG,MG,3151503,-20.4762,-45.9589,1440.0,14.688,10.2
2000,Pocrane - MG,MG,3151909,-19.6208,-41.6334,1200.0,1.032,0.86
2000,Pompéu - MG,MG,3152006,-19.2257,-45.0141,1028.0,0.036,0.035
2000,Ponte Nova - MG,MG,3152105,-20.4111,-42.8978,900.0,1.35,1.5
2000,Ponto dos Volantes - MG,MG,3152170,-16.7473,-41.5025,800.0,0.012,0.015
2000,Porto Firme - MG,MG,3152303,-20.6642,-43.0834,840.0,1.109,1.32
2000,Poté - MG,MG,3152402,-17.8077,-41.786,700.0,0.42,0.6
2000,Pouso Alegre - MG,MG,3152501,-22.2266,-45.9389,1039.0,0.106,0.102
2000,Pouso Alto - MG,MG,3152600,-22.1964,-44.9748,607.0,0.034,0.056
2000,Poço Fundo - MG,MG,3151701,-21.78,-45.9658,1800.0,8.842,4.912
2000,Poços de Caldas - MG,MG,3151800,-21.78,-46.5692,2094.0,11.52,5.5
2000,Prados - MG,MG,3152709,-21.0597,-44.0778,900.0,0.027,0.03
2000,Pratinha - MG,MG,3153004,-19.739,-46.3755,2640.0,2.057,0.779
2000,Pratápolis - MG,MG,3152907,-20.7411,-46.8624,2400.0,0.168,0.07
2000,Presidente Bernardes - MG,MG,3153103,-20.7656,-43.1895,849.0,0.277,0.326
2000,Presidente Kubitschek - MG,MG,3153301,-18.6193,-43.5628,1000.0,0.008,0.008
2000,Presidente Olegário - MG,MG,3153400,-18.4096,-46.4165,2160.0,3.672,1.7
2000,Prudente de Morais - MG,MG,3153608,-19.4742,-44.1591,1000.0,0.001,0.001
2000,Quartel Geral - MG,MG,3153707,-19.2703,-45.5569,1349.0,0.139,0.103
2000,Queluzito - MG,MG,3153806,-20.7416,-43.8851,800.0,0.004,0.005
2000,Raul Soares - MG,MG,3154002,-20.1061,-42.4502,600.0,2.91,4.85
2000,Recreio - MG,MG,3154101,-21.5289,-42.4676,1187.0,0.019,0.016
2000,Reduto - MG,MG,3154150,-20.2401,-41.9848,1187.0,2.827,2.38
2000,Resende Costa - MG,MG,3154200,-20.9171,-44.2407,900.0,0.189,0.21
2000,Resplendor - MG,MG,3154309,-19.3194,-41.2462,960.0,0.941,0.98
2000,Ressaquinha - MG,MG,3154408,-21.0642,-43.7598,750.0,0.003,0.004
2000,Riacho dos Machados - MG,MG,3154507,-16.0091,-43.0488,1000.0,0.006,0.006
2000,Ribeirão Vermelho - MG,MG,3154705,-21.1879,-45.0637,2060.0,0.412,0.2
2000,Ribeirão das Neves - MG,MG,3154606,-19.7621,-44.0844,3000.0,0.054,0.018
2000,Rio Casca - MG,MG,3154903,-20.2285,-42.6462,2191.0,0.16,0.073
2000,Rio Doce - MG,MG,3155009,-20.2412,-42.8995,900.0,0.045,0.05
2000,Rio Espera - MG,MG,3155207,-20.855,-43.4721,800.0,0.036,0.045
2000,Rio Manso - MG,MG,3155306,-20.2666,-44.3069,800.0,0.064,0.1
2000,Rio Novo - MG,MG,3155405,-21.4649,-43.1168,655.0,0.059,0.09
2000,Rio Paranaíba - MG,MG,3155504,-19.1861,-46.2455,2099.0,21.291,10.139
2000,Rio Pardo de Minas - MG,MG,3155603,-15.616,-42.5405,1800.0,0.666,0.37
2000,Rio Piracicaba - MG,MG,3155702,-19.9284,-43.1829,1625.0,0.078,0.048
2000,Rio Pomba - MG,MG,3155801,-21.2712,-43.1696,1700.0,0.381,0.224
2000,Rio Preto - MG,MG,3155900,-22.0861,-43.8293,1142.0,0.04,0.035
2000,Rio Vermelho - MG,MG,3156007,-18.2922,-43.0018,900.0,0.027,0.03
2000,Rio do Prado - MG,MG,3155108,-16.6056,-40.5714,512.0,0.042,0.082
2000,Ritápolis - MG,MG,3156106,-21.0276,-44.3204,906.0,0.068,0.075
2000,Romaria - MG,MG,3156403,-18.8838,-47.5782,2340.0,15.21,6.5
2000,Rosário da Limeira - MG,MG,3156452,-20.9812,-42.5112,1500.0,1.8,1.2
2000,Rubelita - MG,MG,3156502,-16.4053,-42.261,1800.0,0.018,0.01
2000,Rubim - MG,MG,3156601,-16.3775,-40.5397,269.0,0.007,0.026
2000,Sabinópolis - MG,MG,3156809,-18.6653,-43.0752,1500.0,0.135,0.09
2000,Sacramento - MG,MG,3156908,-19.8622,-47.4508,825.0,0.33,0.4
2000,Salinas - MG,MG,3157005,-16.1753,-42.2964,2000.0,0.04,0.02
2000,Santa Bárbara - MG,MG,3157203,-19.9604,-43.4101,1166.0,0.063,0.054
2000,Santa Bárbara do Leste - MG,MG,3157252,-19.9753,-42.1457,1439.0,4.406,3.06
2000,Santa Bárbara do Monte Verde - MG,MG,3157278,-21.9592,-43.7027,718.0,0.023,0.032
2000,Santa Bárbara do Tugúrio - MG,MG,3157302,-21.2431,-43.5607,646.0,0.084,0.13
2000,Santa Cruz de Salinas - MG,MG,3157377,-16.0967,-41.7418,900.0,0.009,0.01
2000,Santa Cruz do Escalvado - MG,MG,3157401,-20.2372,-42.8169,900.0,0.126,0.14
2000,Santa Efigênia de Minas - MG,MG,3157500,-18.8235,-42.4388,800.0,0.08,0.1
2000,Santa Fé de Minas - MG,MG,3157609,-16.6859,-45.4102,500.0,0.003,0.006
2000,Santa Helena de Minas - MG,MG,3157658,-16.9707,-40.6727,980.0,0.049,0.05
2000,Santa Juliana - MG,MG,3157708,-19.3108,-47.5322,1823.0,0.547,0.3
2000,Santa Luzia - MG,MG,3157807,-19.7548,-43.8497,1500.0,0.006,0.004
2000,Santa Margarida - MG,MG,3157906,-20.3839,-42.2519,1200.0,7.056,5.88
2000,Santa Maria de Itabira - MG,MG,3158003,-19.4431,-43.1064,1200.0,0.03,0.025
2000,Santa Maria do Salto - MG,MG,3158102,-16.2479,-40.1512,520.0,0.013,0.025
2000,Santa Maria do Suaçuí - MG,MG,3158201,-18.1896,-42.4139,1200.0,0.12,0.1
2000,Santa Rita de Caldas - MG,MG,3159209,-22.0292,-46.3385,1800.0,0.216,0.12
2000,Santa Rita de Jacutinga - MG,MG,3159308,-22.1474,-44.0977,1000.0,0.05,0.05
2000,Santa Rita de Minas - MG,MG,3159357,-19.876,-42.1363,1439.0,3.859,2.68
2000,Santa Rita do Itueto - MG,MG,3159506,-19.3576,-41.3821,1319.0,9.398,7.12
2000,Santa Rita do Sapucaí - MG,MG,3159605,-22.2461,-45.7034,1920.0,12.096,6.3
2000,Santa Rosa da Serra - MG,MG,3159704,-19.5186,-45.9611,1500.0,1.875,1.25
2000,Santana da Vargem - MG,MG,3158300,-21.2449,-45.5005,1800.0,9.72,5.4
2000,Santana do Deserto - MG,MG,3158607,-21.9512,-43.1583,600.0,0.003,0.005
2000,Santana do Garambéu - MG,MG,3158706,-21.5983,-44.105,1000.0,0.011,0.011
2000,Santana do Jacaré - MG,MG,3158805,-20.9007,-45.1285,1200.0,0.84,0.7
2000,Santana do Manhuaçu - MG,MG,3158904,-20.1031,-41.9278,1200.0,4.452,3.71
2000,Santana do Paraíso - MG,MG,3158953,-19.3661,-42.5446,218.0,0.031,0.142
2000,Santana do Riacho - MG,MG,3159001,-19.1662,-43.722,600.0,0.009,0.015
2000,Santana dos Montes - MG,MG,3159100,-20.7868,-43.6949,800.0,0.016,0.02
2000,Santo Antônio do Amparo - MG,MG,3159902,-20.943,-44.9176,2400.0,19.2,8.0
2000,Santo Antônio do Aventureiro - MG,MG,3160009,-21.7606,-42.8115,1000.0,0.021,0.021
2000,Santo Antônio do Grama - MG,MG,3160108,-20.3185,-42.6047,950.0,0.285,0.3
2000,Santo Antônio do Itambé - MG,MG,3160207,-18.4609,-43.3006,1000.0,0.02,0.02
2000,Santo Antônio do Jacinto - MG,MG,3160306,-16.5332,-40.1817,522.0,0.047,0.09
2000,Santo Antônio do Monte - MG,MG,3160405,-20.085,-45.2947,1100.0,0.198,0.18
2000,Santo Antônio do Retiro - MG,MG,3160454,-15.3393,-42.6171,1666.0,0.05,0.03
2000,Santo Antônio do Rio Abaixo - MG,MG,3160504,-19.2374,-43.2604,600.0,0.003,0.005
2000,Santos Dumont - MG,MG,3160702,-21.4634,-43.5499,1083.0,0.013,0.012
2000,Sapucaí-Mirim - MG,MG,3165404,-22.7409,-45.738,1333.0,0.004,0.003
2000,Sardoá - MG,MG,3165503,-18.7828,-42.3629,800.0,0.112,0.14
2000,Sem-Peixe - MG,MG,3165560,-20.1008,-42.8483,1600.0,0.064,0.04
2000,Senador Cortes - MG,MG,3165602,-21.7986,-42.9424,1083.0,0.013,0.012
2000,Senador Firmino - MG,MG,3165701,-20.9158,-43.0904,1562.0,0.275,0.176
2000,Senador José Bento - MG,MG,3165800,-22.1633,-46.1792,1506.0,1.35,0.896
2000,Senador Modestino Gonçalves - MG,MG,3165909,-17.9465,-43.2172,597.0,0.046,0.077
2000,Senhora de Oliveira - MG,MG,3166006,-20.7972,-43.3394,1196.0,0.152,0.127
2000,Senhora do Porto - MG,MG,3166105,-18.8909,-43.0799,800.0,0.024,0.03
2000,Senhora dos Remédios - MG,MG,3166204,-21.0351,-43.5812,746.0,0.097,0.13
2000,Sericita - MG,MG,3166303,-20.4748,-42.4828,1500.0,3.645,2.43
2000,Serra Azul de Minas - MG,MG,3166501,-18.3602,-43.1675,1000.0,0.025,0.025
2000,Serra do Salitre - MG,MG,3166808,-19.1083,-46.6961,1823.0,14.227,7.8
2000,Serrania - MG,MG,3166907,-21.5441,-46.0417,1800.0,5.4,3.0
2000,Serranos - MG,MG,3167004,-21.8857,-44.5125,1000.0,0.002,0.002
2000,Serranópolis de Minas - MG,MG,3166956,-15.8176,-42.8732,1000.0,0.006,0.006
2000,Serro - MG,MG,3167103,-18.5991,-43.3744,1000.0,0.16,0.16
2000,Sete Lagoas - MG,MG,3167202,-19.4569,-44.2413,1500.0,0.003,0.002
2000,Setubinha - MG,MG,3165552,-17.6002,-42.1587,700.0,0.7,1.0
2000,Silveirânia - MG,MG,3167301,-21.1615,-43.2128,800.0,0.028,0.035
2000,Silvianópolis - MG,MG,3167400,-22.0274,-45.8385,1586.0,1.85,1.166
2000,Simonésia - MG,MG,3167608,-20.1341,-42.0091,1200.0,6.96,5.8
2000,Sobrália - MG,MG,3167707,-19.2345,-42.0998,793.0,0.023,0.029
2000,Soledade de Minas - MG,MG,3167806,-22.0554,-45.0464,2758.0,0.8,0.29
2000,São Bento Abade - MG,MG,3160801,-21.5839,-45.0699,1800.0,0.63,0.35
2000,São Brás do Suaçuí - MG,MG,3160900,-20.6242,-43.9515,800.0,0.004,0.005
2000,São Domingos das Dores - MG,MG,3160959,-19.5246,-42.0106,1440.0,4.791,3.327
2000,São Domingos do Prata - MG,MG,3161007,-19.8678,-42.971,1643.0,0.6,0.365
2000,São Francisco de Paula - MG,MG,3161205,-20.7036,-44.9838,1800.0,3.96,2.2
2000,São Francisco do Glória - MG,MG,3161403,-20.7923,-42.2673,1200.0,1.872,1.56
2000,São Félix de Minas - MG,MG,3161056,-18.5959,-41.4889,420.0,0.412,0.98
2000,São Geraldo - MG,MG,3161502,-20.9252,-42.8364,1200.0,0.3,0.25
2000,São Geraldo da Piedade - MG,MG,3161601,-18.8411,-42.2867,800.0,0.016,0.02
2000,São Geraldo do Baixio - MG,MG,3161650,-18.9097,-41.363,805.0,0.058,0.072
2000,São Gonçalo do Abaeté - MG,MG,3161700,-18.3315,-45.8265,4200.0,0.357,0.085
2000,São Gonçalo do Pará - MG,MG,3161809,-19.9822,-44.8593,1000.0,0.005,0.005
2000,São Gonçalo do Rio Abaixo - MG,MG,3161908,-19.8221,-43.366,1586.0,0.23,0.145
2000,São Gonçalo do Rio Preto - MG,MG,3125507,-18.0025,-43.3854,600.0,0.039,0.065
2000,São Gonçalo do Sapucaí - MG,MG,3162005,-21.8932,-45.5893,1439.0,6.451,4.48
2000,São Gotardo - MG,MG,3162104,-19.3087,-46.0465,2100.0,4.914,2.34
2000,São Joaquim de Bicas - MG,MG,3162922,-20.048,-44.2749,500.0,0.001,0.002
2000,São José da Barra - MG,MG,3162948,-20.7178,-46.313,2640.0,5.28,2.0
2000,São José da Lapa - MG,MG,3162955,-19.6971,-43.9586,2000.0,0.002,0.001
2000,São José da Safira - MG,MG,3163003,-18.3243,-42.1431,800.0,0.016,0.02
2000,São José da Varginha - MG,MG,3163102,-19.7006,-44.556,1800.0,0.009,0.005
2000,São José do Alegre - MG,MG,3163201,-22.3243,-45.5258,600.0,0.156,0.26
2000,São José do Divino - MG,MG,3163300,-18.4793,-41.3907,416.0,0.035,0.084
2000,São José do Goiabal - MG,MG,3163409,-19.9214,-42.7035,1600.0,0.056,0.035
2000,São José do Jacuri - MG,MG,3163508,-18.281,-42.6729,1200.0,0.078,0.065
2000,São José do Mantimento - MG,MG,3163607,-20.0058,-41.7486,719.0,0.475,0.66
2000,São João Batista do Glória - MG,MG,3162203,-20.635,-46.508,2160.0,1.253,0.58
2000,São João Evangelista - MG,MG,3162807,-18.548,-42.7655,1184.0,0.154,0.13
2000,São João Nepomuceno - MG,MG,3162906,-21.5381,-43.0069,1085.0,0.051,0.047
2000,São João da Lagoa - MG,MG,3162252,-16.8455,-44.3507,625.0,0.005,0.008
2000,São João da Mata - MG,MG,3162302,-21.928,-45.9297,1478.0,0.887,0.6
2000,São João da Ponte - MG,MG,3162401,-15.9271,-44.0096,1000.0,0.008,0.008
2000,São João del Rei - MG,MG,3162500,-21.1311,-44.2526,900.0,0.081,0.09
2000,São João do Manhuaçu - MG,MG,3162559,-20.3933,-42.1533,1400.0,8.12,5.8
2000,São João do Manteninha - MG,MG,3162575,-18.723,-41.1628,240.0,0.182,0.757
2000,São João do Oriente - MG,MG,3162609,-19.3384,-42.1575,1214.0,0.017,0.014
2000,São João do Pacuí - MG,MG,3162658,-16.5373,-44.5134,625.0,0.005,0.008
2000,São João do Paraíso - MG,MG,3162708,-15.3168,-42.0213,720.0,0.108,0.15
2000,São Lourenço - MG,MG,3163706,-22.1166,-45.0506,2404.0,0.101,0.042
2000,São Miguel do Anta - MG,MG,3163805,-20.7067,-42.7174,1500.0,1.056,0.704
2000,São Pedro da União - MG,MG,3163904,-21.131,-46.6123,715.0,2.002,2.8
2000,São Pedro do Suaçuí - MG,MG,3164100,-18.3609,-42.5981,1200.0,0.024,0.02
2000,São Pedro dos Ferros - MG,MG,3164001,-20.1732,-42.5251,1303.0,0.202,0.155
2000,São Romão - MG,MG,3164209,-16.3641,-45.0749,333.0,0.001,0.003
2000,São Roque de Minas - MG,MG,3164308,-20.249,-46.3639,1609.0,2.999,1.863
2000,São Sebastião da Bela Vista - MG,MG,3164407,-22.1583,-45.7546,1611.0,2.552,1.584
2000,São Sebastião da Vargem Alegre - MG,MG,3164431,-19.7477,-43.3679,1228.0,1.228,1.0
2000,São Sebastião do Anta - MG,MG,3164472,-19.5064,-41.985,1100.0,1.43,1.3
2000,São Sebastião do Maranhão - MG,MG,3164506,-18.0873,-42.5659,1200.0,0.18,0.15
2000,São Sebastião do Oeste - MG,MG,3164605,-20.2758,-45.0063,1100.0,0.055,0.05
2000,São Sebastião do Paraíso - MG,MG,3164704,-20.9167,-46.9837,1440.0,17.28,12.0
2000,São Sebastião do Rio Verde - MG,MG,3164902,-22.2183,-44.9761,500.0,0.001,0.002
2000,São Tiago - MG,MG,3165008,-20.9075,-44.5098,900.0,0.585,0.65
2000,São Tomás de Aquino - MG,MG,3165107,-20.7791,-47.0962,1800.0,7.2,4.0
2000,São Tomé das Letras - MG,MG,3165206,-21.7218,-44.9849,1800.0,1.8,1.0
2000,São Vicente de Minas - MG,MG,3165305,-21.7042,-44.4431,1000.0,0.001,0.001
2000,Tabuleiro - MG,MG,3167905,-21.3632,-43.2381,1000.0,0.06,0.06
2000,Taiobeiras - MG,MG,3168002,-15.8106,-42.2259,2400.0,0.629,0.262
2000,Taparuba - MG,MG,3168051,-19.7621,-41.608,1560.0,0.234,0.15
2000,Tapira - MG,MG,3168101,-19.9166,-46.8264,1920.0,0.384,0.2
2000,Tapiraí - MG,MG,3168200,-19.8936,-46.0221,3650.0,1.46,0.4
2000,Taquaraçu de Minas - MG,MG,3168309,-19.6652,-43.6922,900.0,0.045,0.05
2000,Tarumirim - MG,MG,3168408,-19.2835,-42.0097,1319.0,0.97,0.735
2000,Teixeiras - MG,MG,3168507,-20.6561,-42.8564,899.0,1.486,1.652
2000,Teófilo Otoni - MG,MG,3168606,-17.8595,-41.5087,700.0,0.42,0.6
2000,Timóteo - MG,MG,3168705,-19.5811,-42.6471,333.0,0.001,0.003
2000,Tiradentes - MG,MG,3168804,-21.1102,-44.1744,875.0,0.007,0.008
2000,Tiros - MG,MG,3168903,-19.0037,-45.9626,1500.0,0.761,0.507
2000,Tocantins - MG,MG,3169000,-21.1774,-43.0127,1250.0,0.01,0.008
2000,Tocos do Moji - MG,MG,3169059,-22.3698,-46.0971,1322.0,0.463,0.35
2000,Toledo - MG,MG,3169109,-22.7421,-46.3728,1500.0,0.009,0.006
2000,Tombos - MG,MG,3169208,-20.9086,-42.0228,1200.0,1.596,1.33
2000,Três Corações - MG,MG,3169307,-21.6921,-45.2511,1800.0,12.87,7.15
2000,Três Marias - MG,MG,3169356,-18.2048,-45.2473,960.0,0.048,0.05
2000,Três Pontas - MG,MG,3169406,-21.3694,-45.5109,1632.0,35.904,22.0
2000,Tupaciguara - MG,MG,3169604,-18.5866,-48.6985,1500.0,0.153,0.102
2000,Turmalina - MG,MG,3169703,-17.2828,-42.7285,2000.0,0.752,0.376
2000,Turvolândia - MG,MG,3169802,-21.8733,-45.7859,1080.0,1.08,1.0
2000,Ubaporanga - MG,MG,3170057,-19.6351,-42.1059,1320.0,4.949,3.749
2000,Ubaí - MG,MG,3170008,-16.2885,-44.7783,1000.0,0.012,0.012
2000,Uberaba - MG,MG,3170107,-19.7472,-47.9381,2700.0,2.43,0.9
2000,Uberlândia - MG,MG,3170206,-18.9141,-48.2749,2400.0,1.476,0.615
2000,Ubá - MG,MG,3169901,-21.1204,-42.9359,1198.0,0.175,0.146
2000,Unaí - MG,MG,3170404,-16.3592,-46.9022,3600.0,0.234,0.065
2000,Urucuia - MG,MG,3170529,-16.1244,-45.7352,2000.0,2.17,1.085
2000,Urucânia - MG,MG,3170503,-20.3521,-42.737,900.0,0.45,0.5
2000,Vargem Alegre - MG,MG,3170578,-19.5988,-42.2949,1200.0,0.36,0.3
2000,Vargem Bonita - MG,MG,3170602,-20.3333,-46.3688,1200.0,1.08,0.9
2000,Vargem Grande do Rio Pardo - MG,MG,3170651,-15.3987,-42.3085,720.0,0.072,0.1
2000,Varginha - MG,MG,3170701,-21.5556,-45.4364,1440.0,8.352,5.8
2000,Varjão de Minas - MG,MG,3170750,-18.3741,-46.0313,3000.0,2.817,0.939
2000,Vazante - MG,MG,3171006,-17.9827,-46.9088,2400.0,0.012,0.005
2000,Veredinha - MG,MG,3171071,-17.3974,-42.7307,1500.0,0.045,0.03
2000,Vermelho Novo - MG,MG,3171154,-20.0406,-42.2688,1311.0,3.175,2.42
2000,Veríssimo - MG,MG,3171105,-19.6657,-48.3118,800.0,0.048,0.06
2000,Vieiras - MG,MG,3171402,-20.867,-42.2401,1200.0,1.476,1.23
2000,Virgem da Lapa - MG,MG,3171600,-16.807,-42.3431,800.0,0.004,0.005
2000,Virginópolis - MG,MG,3171808,-18.8154,-42.7015,1200.0,0.144,0.12
2000,Virgolândia - MG,MG,3171907,-18.4738,-42.3067,800.0,0.04,0.05
2000,Virgínia - MG,MG,3171709,-22.3264,-45.0965,600.0,0.072,0.12
2000,Visconde do Rio Branco - MG,MG,3172004,-21.0127,-42.8361,845.0,0.06,0.071
2000,Viçosa - MG,MG,3171303,-20.7559,-42.8742,1500.0,1.5,1.0
2000,Água Boa - MG,MG,3100609,-17.9914,-42.3806,2400.0,11.04,4.6
2000,Água Comprida - MG,MG,3100708,-20.0576,-48.1069,800.0,0.048,0.06
2000,Águas Formosas - MG,MG,3100906,-17.0802,-40.9384,975.0,0.078,0.08
2000,Águas Vermelhas - MG,MG,3101003,-15.7431,-41.4571,810.0,0.081,0.1
2000,Adamantina - SP,SP,3500105,-21.682,-51.0737,1708.0,1.056,0.618
2000,Adolfo - SP,SP,3500204,-21.2325,-49.6451,1071.0,0.105,0.098
2000,Aguaí - SP,SP,3500303,-22.0572,-46.9735,1921.0,1.599,0.832
2000,Agudos - SP,SP,3500709,-22.4694,-48.9863,1065.0,0.163,0.153
2000,Alfredo Marcondes - SP,SP,3500808,-21.9527,-51.414,1090.0,0.024,0.022
2000,Altinópolis - SP,SP,3501004,-21.0214,-47.3712,1922.0,19.98,10.393
2000,Alto Alegre - SP,SP,3501103,-21.5811,-50.168,854.0,0.24,0.281
2000,Alumínio - SP,SP,3501152,-23.5306,-47.2546,2000.0,0.006,0.003
2000,Alvinlândia - SP,SP,3501509,-22.4435,-49.7623,2134.0,1.08,0.506
2000,Americana - SP,SP,3501608,-22.7374,-47.3331,3176.0,0.054,0.017
2000,Amparo - SP,SP,3501905,-22.7088,-46.772,2776.0,6.552,2.36
2000,Américo Brasiliense - SP,SP,3501707,-21.7288,-48.1147,1533.0,0.023,0.015
2000,Américo de Campos - SP,SP,3501806,-20.2985,-49.7359,1071.0,0.15,0.14
2000,Analândia - SP,SP,3502002,-22.1289,-47.6619,2357.0,0.198,0.084
2000,Andradina - SP,SP,3502101,-20.8948,-51.3786,1727.0,0.019,0.011
2000,Angatuba - SP,SP,3502200,-23.4917,-48.4139,6545.0,0.144,0.022
2000,Anhembi - SP,SP,3502309,-22.793,-48.1336,2750.0,0.011,0.004
2000,Anhumas - SP,SP,3502408,-22.2934,-51.3895,1714.0,0.096,0.056
2000,Aparecida d'Oeste - SP,SP,3502606,-20.4487,-50.8835,2136.0,0.936,0.438
2000,Arandu - SP,SP,3503109,-23.1386,-49.0487,3202.0,3.6,1.124
2000,Araraquara - SP,SP,3503208,-21.7845,-48.178,3214.0,0.18,0.056
2000,Araras - SP,SP,3503307,-22.3572,-47.3842,3204.0,1.08,0.337
2000,Araçatuba - SP,SP,3502804,-21.2076,-50.4401,1067.0,0.11,0.103
2000,Arco-Íris - SP,SP,3503356,-21.7728,-50.466,428.0,0.024,0.056
2000,Arealva - SP,SP,3503406,-22.031,-48.9135,2128.0,0.215,0.101
2000,Areiópolis - SP,SP,3503604,-22.6672,-48.6681,1710.0,0.561,0.328
2000,Ariranha - SP,SP,3503703,-21.1872,-48.7904,1250.0,0.005,0.004
2000,Aspásia - SP,SP,3503950,-20.16,-50.728,643.0,0.085,0.132
2000,Assis - SP,SP,3504008,-22.66,-50.4183,1166.0,0.007,0.006
2000,Auriflama - SP,SP,3504206,-20.6836,-50.5572,1070.0,0.182,0.17
2000,Avanhandava - SP,SP,3504404,-21.4584,-49.9509,4285.0,0.36,0.084
2000,Avaré - SP,SP,3504503,-23.1067,-48.9251,1603.0,0.72,0.449
2000,Avaí - SP,SP,3504305,-22.1514,-49.3356,2131.0,0.486,0.228
2000,Bady Bassitt - SP,SP,3504602,-20.9197,-49.4385,1068.0,0.047,0.044
2000,Balbinos - SP,SP,3504701,-21.8963,-49.3619,3197.0,0.63,0.197
2000,Bananal - SP,SP,3504909,-22.6819,-44.3281,1607.0,0.045,0.028
2000,Bariri - SP,SP,3505203,-22.073,-48.7438,2136.0,1.56,0.73
2000,Barão de Antonina - SP,SP,3505005,-23.6284,-49.5634,1500.0,0.042,0.028
2000,Bastos - SP,SP,3505807,-21.921,-50.7357,1714.0,0.096,0.056
2000,Batatais - SP,SP,3505906,-20.8929,-47.5921,1495.0,3.583,2.396
2000,Bauru - SP,SP,3506003,-22.3246,-49.0871,1492.0,0.3,0.201
2000,Bebedouro - SP,SP,3506102,-20.9491,-48.4791,8150.0,0.432,0.053
2000,Bento de Abreu - SP,SP,3506201,-21.2686,-50.814,2153.0,0.056,0.026
2000,Bernardino de Campos - SP,SP,3506300,-23.0164,-49.4679,2137.0,1.368,0.64
2000,Bilac - SP,SP,3506409,-21.404,-50.4746,2135.0,0.442,0.207
2000,Birigui - SP,SP,3506508,-21.291,-50.3432,1708.0,0.316,0.185
2000,Boa Esperança do Sul - SP,SP,3506706,-21.9918,-48.3906,7045.0,0.31,0.044
2000,Bocaina - SP,SP,3506805,-22.1365,-48.523,2562.0,0.72,0.281
2000,Bofete - SP,SP,3506904,-23.1055,-48.2582,1704.0,0.288,0.169
2000,Boituva - SP,SP,3507001,-23.2855,-47.6786,4416.0,0.053,0.012
2000,Boracéia - SP,SP,3507308,-22.1926,-48.7808,1274.0,0.065,0.051
2000,Borborema - SP,SP,3507407,-21.6214,-49.0741,2138.0,0.216,0.101
2000,Borebi - SP,SP,3507456,-22.5728,-48.9707,2117.0,0.036,0.017
2000,Botucatu - SP,SP,3507506,-22.8837,-48.4437,2561.0,1.296,0.506
2000,Bragança Paulista - SP,SP,3507605,-22.9527,-46.5419,2775.0,2.184,0.787
2000,Braúna - SP,SP,3507704,-21.499,-50.3175,2560.0,0.763,0.298
2000,Brodowski - SP,SP,3507803,-20.9845,-47.6572,1125.0,1.407,1.25
2000,Brotas - SP,SP,3507902,-22.2795,-48.1251,1494.0,0.378,0.253
2000,Buritama - SP,SP,3508108,-21.0661,-50.1475,875.0,0.007,0.008
2000,Buritizal - SP,SP,3508207,-20.1911,-47.7096,2151.0,0.185,0.086
2000,Bálsamo - SP,SP,3504800,-20.7348,-49.5865,638.0,0.115,0.18
2000,Cabreúva - SP,SP,3508405,-23.3053,-47.1362,2142.0,0.12,0.056
2000,Cabrália Paulista - SP,SP,3508306,-22.4576,-49.3393,1068.0,0.267,0.25
2000,Cachoeira Paulista - SP,SP,3508603,-22.6665,-45.0154,2153.0,0.028,0.013
2000,Caconde - SP,SP,3508702,-21.528,-46.6437,2135.0,13.92,6.517
2000,Cafelândia - SP,SP,3508801,-21.8031,-49.6092,2136.0,1.032,0.483
2000,Cajobi - SP,SP,3509304,-20.8773,-48.8063,1076.0,0.014,0.013
2000,Cajuru - SP,SP,3509403,-21.2749,-47.303,1708.0,2.496,1.461
2000,Campinas - SP,SP,3509502,-22.9053,-47.0659,2563.0,3.96,1.545
2000,Campos Novos Paulista - SP,SP,3509809,-22.602,-49.9987,1918.0,0.213,0.111
2000,Canitar - SP,SP,3510153,-23.004,-49.7839,2135.0,0.504,0.236
2000,Cardoso - SP,SP,3510708,-20.08,-49.9183,2153.0,0.056,0.026
2000,Casa Branca - SP,SP,3510807,-21.7708,-47.0852,2552.0,0.245,0.096
2000,Catanduva - SP,SP,3511102,-21.1314,-48.977,526.0,0.04,0.076
2000,Catiguá - SP,SP,3511201,-21.0519,-49.0616,2142.0,0.03,0.014
2000,Cedral - SP,SP,3511300,-20.9009,-49.2664,2131.0,0.42,0.197
2000,Cerqueira César - SP,SP,3511409,-23.038,-49.1655,3846.0,2.7,0.702
2000,Cerquilho - SP,SP,3511508,-23.1665,-47.7459,2714.0,0.019,0.007
2000,Chavantes - SP,SP,3557204,-23.0366,-49.7096,2139.0,0.552,0.258
2000,Clementina - SP,SP,3511904,-21.5604,-50.4525,641.0,0.104,0.162
2000,Colina - SP,SP,3512001,-20.7114,-48.5387,2123.0,0.206,0.097
2000,Conchas - SP,SP,3512308,-23.0154,-48.0134,2333.0,0.007,0.003
2000,Coroados - SP,SP,3512506,-21.3521,-50.2859,1287.0,0.121,0.094
2000,Coronel Macedo - SP,SP,3512605,-23.6261,-49.31,2135.0,0.6,0.281
2000,Corumbataí - SP,SP,3512704,-22.2213,-47.6215,2572.0,0.265,0.103
2000,Cosmorama - SP,SP,3512902,-20.4755,-49.7827,2135.0,0.869,0.407
2000,Cravinhos - SP,SP,3513108,-21.338,-47.7324,1709.0,1.728,1.011
2000,Cristais Paulista - SP,SP,3513207,-20.4036,-47.4209,1834.0,12.8,6.977
2000,Cruzeiro - SP,SP,3513405,-22.5728,-44.969,1714.0,0.024,0.014
2000,Cássia dos Coqueiros - SP,SP,3510906,-21.2801,-47.1643,2136.0,1.56,0.73
2000,Cândido Mota - SP,SP,3510005,-22.7471,-50.3873,2989.0,1.68,0.562
2000,Descalvado - SP,SP,3513702,-21.9002,-47.6181,1068.0,0.675,0.632
2000,Dirce Reis - SP,SP,3513850,-20.4642,-50.6073,854.0,0.053,0.062
2000,Divinolândia - SP,SP,3513900,-21.6637,-46.7361,4272.0,5.148,1.205
2000,Dois Córregos - SP,SP,3514106,-22.3673,-48.3819,3844.0,6.048,1.573
2000,Dolcinópolis - SP,SP,3514205,-20.124,-50.5149,1500.0,0.006,0.004
2000,Dourado - SP,SP,3514304,-22.1044,-48.3178,4274.0,0.701,0.164
2000,Dracena - SP,SP,3514403,-21.4843,-51.535,2142.0,1.2,0.56
2000,Duartina - SP,SP,3514502,-22.4146,-49.4084,1280.0,0.648,0.506
2000,Dumont - SP,SP,3514601,-21.2324,-47.9756,2140.0,0.396,0.185
2000,Echaporã - SP,SP,3514700,-22.4326,-50.2038,4057.0,1.68,0.414
2000,Elisiário - SP,SP,3514924,-21.1678,-49.1146,1071.0,0.015,0.014
2000,Embaúba - SP,SP,3514957,-20.9796,-48.8325,1000.0,0.002,0.002
2000,Espírito Santo do Pinhal - SP,SP,3515186,-22.1909,-46.7477,3203.0,21.96,6.854
2000,Espírito Santo do Turvo - SP,SP,3515194,-22.6925,-49.4341,4300.0,0.043,0.01
2000,Estrela d'Oeste - SP,SP,3515202,-20.2875,-50.4049,2137.0,0.84,0.393
2000,Estrela do Norte - SP,SP,3515301,-22.4859,-51.6632,1500.0,0.003,0.002
2000,Fartura - SP,SP,3515400,-23.3916,-49.5124,1709.0,2.755,1.612
2000,Fernando Prestes - SP,SP,3515608,-21.2661,-48.6874,2181.0,0.024,0.011
2000,Fernandópolis - SP,SP,3515509,-20.2806,-50.2471,1707.0,0.538,0.315
2000,Fernão - SP,SP,3515657,-22.3607,-49.5187,1068.0,0.69,0.646
2000,Flora Rica - SP,SP,3515806,-21.6727,-51.3821,1071.0,0.12,0.112
2000,Floreal - SP,SP,3515905,-20.6752,-50.1513,1071.0,0.03,0.028
2000,Florínea - SP,SP,3516101,-22.868,-50.6814,1700.0,0.034,0.02
2000,Flórida Paulista - SP,SP,3516002,-21.6127,-51.1724,426.0,0.216,0.506
2000,Franca - SP,SP,3516200,-20.5352,-47.4039,1064.0,7.44,6.988
2000,Gabriel Monteiro - SP,SP,3516507,-21.5294,-50.5573,5341.0,3.082,0.577
2000,Garça - SP,SP,3516705,-22.2125,-49.6546,2136.0,16.8,7.865
2000,Gastão Vidigal - SP,SP,3516804,-20.7948,-50.1912,413.0,0.012,0.029
2000,Gavião Peixoto - SP,SP,3516853,-21.8367,-48.4957,2000.0,0.002,0.001
2000,General Salgado - SP,SP,3516903,-20.6485,-50.364,3200.0,0.432,0.135
2000,Getulina - SP,SP,3517000,-21.7961,-49.9312,639.0,0.27,0.422
2000,Glicério - SP,SP,3517109,-21.3812,-50.2123,643.0,0.101,0.157
2000,Guaimbê - SP,SP,3517307,-21.9091,-49.8986,1067.0,0.3,0.281
2000,Guaiçara - SP,SP,3517208,-21.6195,-49.8013,3197.0,0.63,0.197
2000,Guapiaçu - SP,SP,3517505,-20.7959,-49.2172,1714.0,0.24,0.14
2000,Guarani d'Oeste - SP,SP,3518008,-20.0746,-50.3411,1538.0,0.02,0.013
2000,Guarantã - SP,SP,3518107,-21.8942,-49.5914,2138.0,0.432,0.202
2000,Guararapes - SP,SP,3518206,-21.2544,-50.6453,2130.0,0.36,0.169
2000,Guararema - SP,SP,3518305,-23.4112,-46.0369,2272.0,0.025,0.011
2000,Guaraçaí - SP,SP,3517802,-21.0292,-51.2119,6428.0,0.36,0.056
2000,Guareí - SP,SP,3518503,-23.3714,-48.1837,750.0,0.012,0.016
2000,Guariba - SP,SP,3518602,-21.3594,-48.2316,3216.0,0.193,0.06
2000,Guzolândia - SP,SP,3518909,-20.6467,-50.6645,5357.0,0.15,0.028
2000,Gália - SP,SP,3516606,-22.2918,-49.5504,1925.0,5.4,2.805
2000,Herculândia - SP,SP,3519006,-22.0038,-50.3907,2136.0,0.312,0.146
2000,Iacanga - SP,SP,3519105,-21.8896,-49.031,3200.0,0.544,0.17
2000,Iacri - SP,SP,3519204,-21.8572,-50.6932,640.0,0.36,0.562
2000,Ibaté - SP,SP,3519303,-21.9584,-47.9882,3214.0,0.045,0.014
2000,Ibirarema - SP,SP,3519501,-22.8185,-50.0739,1272.0,0.014,0.011
2000,Ibirá - SP,SP,3519402,-21.083,-49.2448,852.0,0.029,0.034
2000,Ibitinga - SP,SP,3519600,-21.7562,-48.8319,2983.0,0.185,0.062
2000,Iepê - SP,SP,3519907,-22.6602,-51.0779,3214.0,0.09,0.028
2000,Igarapava - SP,SP,3520103,-20.0407,-47.7466,2142.0,0.18,0.084
2000,Indaiatuba - SP,SP,3520509,-23.0816,-47.2101,3206.0,1.35,0.421
2000,Indiana - SP,SP,3520608,-22.1738,-51.2555,4269.0,0.333,0.078
2000,Indiaporã - SP,SP,3520707,-19.979,-50.2909,3206.0,0.279,0.087
2000,Inúbia Paulista - SP,SP,3520806,-21.7695,-50.9633,2139.0,0.552,0.258
2000,Ipaussu - SP,SP,3520905,-23.0575,-49.6279,2989.0,0.589,0.197
2000,Ipeúna - SP,SP,3521101,-22.4355,-47.7151,2111.0,0.019,0.009
2000,Ipiguá - SP,SP,3521150,-20.6557,-49.3842,4212.0,0.139,0.033
2000,Irapuru - SP,SP,3521606,-21.5684,-51.3472,1067.0,0.787,0.737
2000,Irapuã - SP,SP,3521507,-21.2768,-49.4164,6352.0,0.108,0.017
2000,Itajobi - SP,SP,3521903,-21.3123,-49.0629,1071.0,0.06,0.056
2000,Itaju - SP,SP,3522000,-21.9857,-48.8116,4262.0,0.763,0.179
2000,Itapira - SP,SP,3522604,-22.4357,-46.8224,2491.0,5.816,2.334
2000,Itaporanga - SP,SP,3522802,-23.7043,-49.4819,1707.0,0.864,0.506
2000,Itapura - SP,SP,3523008,-20.6419,-51.5063,1000.0,0.002,0.002
2000,Itapuí - SP,SP,3522901,-22.2324,-48.7197,2135.0,0.6,0.281
2000,Itararé - SP,SP,3523206,-24.1085,-49.3352,2589.0,0.101,0.039
2000,Itatiba - SP,SP,3523404,-23.0035,-46.8464,2135.0,1.2,0.562
2000,Itatinga - SP,SP,3523503,-23.1047,-48.6157,2346.0,0.528,0.225
2000,Itaí - SP,SP,3521804,-23.4213,-49.092,1708.0,1.92,1.124
2000,Itirapina - SP,SP,3523602,-22.2562,-47.8166,1714.0,0.048,0.028
2000,Itirapuã - SP,SP,3523701,-20.6416,-47.2194,1653.0,3.84,2.322
2000,Itobi - SP,SP,3523800,-21.7309,-46.9743,2135.0,0.66,0.309
2000,Itu - SP,SP,3523909,-23.2544,-47.2927,3195.0,0.54,0.169
2000,Itupeva - SP,SP,3524006,-23.1526,-47.0593,3207.0,0.805,0.251
2000,Ituverava - SP,SP,3524105,-20.3355,-47.7902,1709.0,0.547,0.32
2000,Itápolis - SP,SP,3522703,-21.5942,-48.8149,2144.0,0.163,0.076
2000,Jaboticabal - SP,SP,3524303,-21.252,-48.3252,2230.0,0.029,0.013
2000,Jaci - SP,SP,3524501,-20.8805,-49.5797,4260.0,0.72,0.169
2000,Jaguariúna - SP,SP,3524709,-22.7037,-46.9851,535.0,0.015,0.028
2000,Jales - SP,SP,3524808,-20.2672,-50.5494,1708.0,0.586,0.343
2000,Jambeiro - SP,SP,3524907,-23.2522,-45.6942,3214.0,0.09,0.028
2000,Jardinópolis - SP,SP,3525102,-21.0176,-47.7606,2115.0,0.146,0.069
2000,Jarinu - SP,SP,3525201,-23.1039,-46.728,4235.0,0.072,0.017
2000,Jaú - SP,SP,3525300,-22.2936,-48.5592,2135.0,1.32,0.618
2000,Jeriquara - SP,SP,3525409,-20.3116,-47.5918,1281.0,2.839,2.215
2000,Joanópolis - SP,SP,3525508,-22.927,-46.2741,2142.0,0.24,0.112
2000,José Bonifácio - SP,SP,3525706,-21.0551,-49.6892,1714.0,0.24,0.14
2000,João Ramalho - SP,SP,3525607,-22.2473,-50.7694,3214.0,0.36,0.112
2000,Jumirim - SP,SP,3525854,-23.0884,-47.7868,1918.0,0.094,0.049
2000,Jundiaí - SP,SP,3525904,-23.1852,-46.8974,3214.0,0.045,0.014
2000,Junqueirópolis - SP,SP,3526001,-21.5103,-51.4342,640.0,0.306,0.478
2000,Júlio Mesquita - SP,SP,3525805,-22.0112,-49.7873,1923.0,1.404,0.73
2000,Laranjal Paulista - SP,SP,3526407,-23.0506,-47.8375,2563.0,0.792,0.309
2000,Lavínia - SP,SP,3526506,-21.1639,-51.0412,900.0,0.009,0.01
2000,Leme - SP,SP,3526704,-22.1809,-47.3841,2820.0,1.506,0.534
2000,Lençóis Paulista - SP,SP,3526803,-22.6027,-48.8037,2136.0,1.5,0.702
2000,Lindóia - SP,SP,3527009,-22.5226,-46.65,3851.0,0.389,0.101
2000,Lins - SP,SP,3527108,-21.6718,-49.7526,4816.0,0.708,0.147
2000,Lourdes - SP,SP,3527256,-20.966,-50.2263,1000.0,0.001,0.001
2000,Louveira - SP,SP,3527306,-23.0856,-46.9484,2117.0,0.072,0.034
2000,Lucianópolis - SP,SP,3527504,-22.4294,-49.522,2131.0,0.42,0.197
2000,Lucélia - SP,SP,3527405,-21.7182,-51.0215,1282.0,0.504,0.393
2000,Luiziânia - SP,SP,3527702,-21.6737,-50.3294,431.0,0.022,0.051
2000,Lupércio - SP,SP,3527801,-22.4146,-49.818,2135.0,3.048,1.427
2000,Lutécia - SP,SP,3527900,-22.3384,-50.394,1701.0,0.148,0.087
2000,Luís Antônio - SP,SP,3527603,-21.55,-47.7801,1282.0,0.295,0.23
2000,Macatuba - SP,SP,3528007,-22.5002,-48.7102,2135.0,0.237,0.111
2000,Macaubal - SP,SP,3528106,-20.8022,-49.9687,2133.0,0.576,0.27
2000,Macedônia - SP,SP,3528205,-20.1444,-50.1973,2142.0,0.3,0.14
2000,Magda - SP,SP,3528304,-20.6445,-50.2305,2178.0,0.061,0.028
2000,Manduri - SP,SP,3528601,-23.0056,-49.3202,2987.0,1.428,0.478
2000,Marapoama - SP,SP,3528858,-21.2587,-49.13,2529.0,0.043,0.017
2000,Marinópolis - SP,SP,3529104,-20.4389,-50.8254,647.0,0.022,0.034
2000,Mariápolis - SP,SP,3528908,-21.7959,-51.1824,2125.0,0.204,0.096
2000,Martinópolis - SP,SP,3529203,-22.1462,-51.1709,2142.0,0.24,0.112
2000,Marília - SP,SP,3529005,-22.2171,-49.9501,1495.0,2.1,1.404
2000,Matão - SP,SP,3529302,-21.6025,-48.364,3843.0,3.717,0.967
2000,Mendonça - SP,SP,3529500,-21.1757,-49.5791,1066.0,0.258,0.242
2000,Meridiano - SP,SP,3529609,-20.3579,-50.1811,2149.0,0.144,0.067
2000,Mesópolis - SP,SP,3529658,-19.9684,-50.6326,833.0,0.015,0.018
2000,Mineiros do Tietê - SP,SP,3529807,-22.412,-48.451,1713.0,0.269,0.157
2000,Mira Estrela - SP,SP,3530003,-19.9789,-50.139,2117.0,0.036,0.017
2000,Mirandópolis - SP,SP,3530102,-21.1313,-51.1035,2126.0,0.168,0.079
2000,Mirassol - SP,SP,3530300,-20.8169,-49.5206,2133.0,0.48,0.225
2000,Mirassolândia - SP,SP,3530409,-20.6179,-49.4617,1274.0,0.065,0.051
2000,Mococa - SP,SP,3530508,-21.4647,-47.0024,2136.0,10.32,4.831
2000,Mogi Guaçu - SP,SP,3530706,-22.3675,-46.9428,2562.0,2.16,0.843
2000,Monte Alegre do Sul - SP,SP,3531209,-22.6817,-46.681,2137.0,0.84,0.393
2000,Monte Alto - SP,SP,3531308,-21.2655,-48.4971,1700.0,0.068,0.04
2000,Monte Aprazível - SP,SP,3531407,-20.768,-49.7184,2133.0,1.02,0.478
2000,Monte Azul Paulista - SP,SP,3531506,-20.9065,-48.6387,2133.0,0.433,0.203
2000,Monte Castelo - SP,SP,3531605,-21.2981,-51.5679,644.0,0.049,0.076
2000,Motuca - SP,SP,3532058,-21.5103,-48.1538,600.0,0.006,0.01
2000,Murutinga do Sul - SP,SP,3532108,-20.9908,-51.2774,1071.0,0.06,0.056
2000,Nantes - SP,SP,3532157,-22.6156,-51.24,1928.0,0.27,0.14
2000,Narandiba - SP,SP,3532207,-22.4057,-51.5274,2333.0,0.007,0.003
2000,Natividade da Serra - SP,SP,3532306,-23.3707,-45.4468,1707.0,0.169,0.099
2000,Neves Paulista - SP,SP,3532504,-20.843,-49.6358,2800.0,0.63,0.225
2000,Nhandeara - SP,SP,3532603,-20.6945,-50.0436,5348.0,1.305,0.244
2000,Nipoã - SP,SP,3532702,-20.9114,-49.7833,2571.0,0.144,0.056
2000,Nova Aliança - SP,SP,3532801,-21.0156,-49.4986,2400.0,0.336,0.14
2000,Nova Campina - SP,SP,3532827,-24.1224,-48.9022,3000.0,0.003,0.001
2000,Nova Canaã Paulista - SP,SP,3532843,-20.3836,-50.9483,641.0,0.234,0.365
2000,Nova Castilho - SP,SP,3532868,-20.7615,-50.3477,2500.0,0.015,0.006
2000,Nova Granada - SP,SP,3533007,-20.5321,-49.3123,2571.0,0.072,0.028
2000,Nova Guataporanga - SP,SP,3533106,-21.332,-51.6447,2142.0,0.12,0.056
2000,Nova Luzitânia - SP,SP,3533304,-20.856,-50.2617,5000.0,0.005,0.001
2000,Novais - SP,SP,3533254,-20.9893,-48.9141,1333.0,0.004,0.003
2000,Novo Horizonte - SP,SP,3533502,-21.4651,-49.2234,213.0,0.084,0.393
2000,Nuporanga - SP,SP,3533601,-20.7296,-47.7429,2561.0,1.67,0.652
2000,Ocauçu - SP,SP,3533700,-22.438,-49.922,2028.0,3.126,1.541
2000,Olímpia - SP,SP,3533908,-20.7366,-48.9106,411.0,0.007,0.017
2000,Oriente - SP,SP,3534104,-22.1549,-50.0971,1708.0,0.135,0.079
2000,Orlândia - SP,SP,3534302,-20.7169,-47.8852,2134.0,0.286,0.134
2000,Oscar Bressane - SP,SP,3534500,-22.3149,-50.2811,1250.0,0.005,0.004
2000,Osvaldo Cruz - SP,SP,3534609,-21.7968,-50.8793,640.0,0.936,1.461
2000,Ourinhos - SP,SP,3534708,-22.9797,-49.8697,1285.0,0.072,0.056
2000,Ouro Verde - SP,SP,3534807,-21.4872,-51.7024,1495.0,0.546,0.365
2000,Ouroeste - SP,SP,3534757,-20.0061,-50.3768,3184.0,0.207,0.065
2000,Pacaembu - SP,SP,3534906,-21.5627,-51.2654,640.0,0.396,0.618
2000,Palestina - SP,SP,3535002,-20.39,-49.4309,4216.0,0.156,0.037
2000,Palmares Paulista - SP,SP,3535101,-21.0854,-48.8037,1000.0,0.001,0.001
2000,Palmeira d'Oeste - SP,SP,3535200,-20.4148,-50.7632,641.0,0.252,0.393
2000,Palmital - SP,SP,3535309,-22.7858,-50.218,1000.0,0.003,0.003
2000,Paraguaçu Paulista - SP,SP,3535507,-22.4114,-50.5732,1489.0,0.143,0.096
2000,Paranapuã - SP,SP,3535903,-20.1048,-50.5886,2181.0,0.048,0.022
2000,Parapuã - SP,SP,3536000,-21.7792,-50.7949,854.0,0.72,0.843
2000,Paraíso - SP,SP,3535705,-21.0159,-48.7761,428.0,0.003,0.007
2000,Pardinho - SP,SP,3536109,-23.0841,-48.3679,1921.0,1.026,0.534
2000,Parisi - SP,SP,3536257,-20.3034,-50.0163,2000.0,0.008,0.004
2000,Patrocínio Paulista - SP,SP,3536307,-20.6384,-47.2801,1500.0,4.983,3.321
2000,Paulicéia - SP,SP,3536406,-21.3153,-51.8321,1250.0,0.005,0.004
2000,Paulistânia - SP,SP,3536570,-22.5768,-49.4008,2130.0,0.36,0.169
2000,Pederneiras - SP,SP,3536703,-22.3511,-48.7781,3628.0,2.856,0.787
2000,Pedra Bela - SP,SP,3536802,-22.7902,-46.4455,2142.0,0.3,0.14
2000,Pedranópolis - SP,SP,3536901,-20.2474,-50.1129,2133.0,0.192,0.09
2000,Pedregulho - SP,SP,3537008,-20.2535,-47.4775,1708.0,16.093,9.418
2000,Pedreira - SP,SP,3537107,-22.7413,-46.8948,2149.0,0.144,0.067
2000,Penápolis - SP,SP,3537305,-21.4148,-50.0769,6400.0,1.44,0.225
2000,Pereira Barreto - SP,SP,3537404,-20.6368,-51.1123,1166.0,0.007,0.006
2000,Pereiras - SP,SP,3537503,-23.0804,-47.972,2083.0,0.025,0.012
2000,Piacatu - SP,SP,3537701,-21.5921,-50.6003,864.0,0.147,0.17
2000,Pilar do Sul - SP,SP,3537909,-23.8077,-47.7222,2333.0,0.007,0.003
2000,Pindamonhangaba - SP,SP,3538006,-22.9246,-45.4613,2772.0,0.646,0.233
2000,Pindorama - SP,SP,3538105,-21.1853,-48.9086,642.0,0.018,0.028
2000,Pinhalzinho - SP,SP,3538204,-22.7811,-46.5897,1704.0,0.288,0.169
2000,Piquete - SP,SP,3538501,-22.6069,-45.1869,2000.0,0.012,0.006
2000,Piracaia - SP,SP,3538600,-23.0525,-46.3594,142.0,0.001,0.007
2000,Piracicaba - SP,SP,3538709,-22.7338,-47.6476,2000.0,0.02,0.01
2000,Piraju - SP,SP,3538808,-23.1981,-49.3803,1922.0,7.02,3.652
2000,Pirajuí - SP,SP,3538907,-21.999,-49.4608,3201.0,1.62,0.506
2000,Pirangi - SP,SP,3539004,-21.0886,-48.6607,1000.0,0.002,0.002
2000,Pirapozinho - SP,SP,3539202,-22.2711,-51.4976,875.0,0.007,0.008
2000,Pirassununga - SP,SP,3539301,-21.996,-47.4257,1066.0,0.289,0.271
2000,Piratininga - SP,SP,3539400,-22.4142,-49.1339,1281.0,2.354,1.837
2000,Planalto - SP,SP,3539608,-21.0342,-49.933,1545.0,0.017,0.011
2000,Poloni - SP,SP,3539905,-20.7829,-49.8258,1066.0,0.096,0.09
2000,Pompéia - SP,SP,3540002,-22.107,-50.176,853.0,0.269,0.315
2000,Pongaí - SP,SP,3540101,-21.7396,-49.3604,2564.0,1.0,0.39
2000,Pontalinda - SP,SP,3540259,-20.4396,-50.5258,104.0,0.019,0.182
2000,Pontes Gestal - SP,SP,3540309,-20.1727,-49.7064,2145.0,0.118,0.055
2000,Populina - SP,SP,3540408,-19.9453,-50.538,2142.0,0.06,0.028
2000,Porto Feliz - SP,SP,3540606,-23.2093,-47.5251,2142.0,0.3,0.14
2000,Porto Ferreira - SP,SP,3540705,-21.8498,-47.487,2129.0,0.264,0.124
2000,Potirendaba - SP,SP,3540804,-21.0428,-49.3815,2154.0,1.118,0.519
2000,Pracinha - SP,SP,3540853,-21.8496,-51.0868,3285.0,0.023,0.007
2000,Pratânia - SP,SP,3541059,-22.8112,-48.6636,2136.0,0.72,0.337
2000,Presidente Alves - SP,SP,3541109,-22.0999,-49.4381,2565.0,1.152,0.449
2000,Presidente Bernardes - SP,SP,3541208,-22.0082,-51.5565,1058.0,0.018,0.017
2000,Presidente Prudente - SP,SP,3541406,-22.1207,-51.3925,1500.0,0.084,0.056
2000,Promissão - SP,SP,3541604,-21.5356,-49.8599,2348.0,0.66,0.281
2000,Quatá - SP,SP,3541703,-22.2456,-50.6966,1704.0,0.288,0.169
2000,Queluz - SP,SP,3541901,-22.5312,-44.7781,3375.0,0.027,0.008
2000,Quintana - SP,SP,3542008,-22.0692,-50.307,1064.0,0.066,0.062
2000,Rancharia - SP,SP,3542206,-22.2269,-50.893,746.0,0.235,0.315
2000,Redenção da Serra - SP,SP,3542305,-23.2638,-45.5422,4000.0,0.012,0.003
2000,Regente Feijó - SP,SP,3542404,-22.2181,-51.3055,4277.0,0.864,0.202
2000,Reginópolis - SP,SP,3542503,-21.8914,-49.2268,2562.0,0.72,0.281
2000,Restinga - SP,SP,3542701,-20.6056,-47.4833,490.0,1.296,2.64
2000,Ribeirão Bonito - SP,SP,3542909,-22.0685,-48.182,1712.0,0.173,0.101
2000,Ribeirão Corrente - SP,SP,3543105,-20.4579,-47.5904,619.0,4.109,6.633
2000,Ribeirão Preto - SP,SP,3543402,-21.1699,-47.8099,4270.0,1.862,0.436
2000,Ribeirão do Sul - SP,SP,3543204,-22.789,-49.933,2993.0,1.344,0.449
2000,Rifaina - SP,SP,3543600,-20.0803,-47.4291,687.0,0.011,0.016
2000,Rinópolis - SP,SP,3543808,-21.7284,-50.7239,640.0,0.54,0.843
2000,Rio Claro - SP,SP,3543907,-22.3984,-47.5546,2126.0,0.168,0.079
2000,Rio das Pedras - SP,SP,3544004,-22.8417,-47.6047,1708.0,0.041,0.024
2000,Riversul - SP,SP,3543501,-23.829,-49.429,2000.0,0.006,0.003
2000,Rosana - SP,SP,3544251,-22.5782,-53.0603,2000.0,0.006,0.003
2000,Rubinéia - SP,SP,3544509,-20.1759,-51.007,643.0,0.047,0.073
2000,Sabino - SP,SP,3544608,-21.4593,-49.5755,2596.0,0.54,0.208
2000,Sagres - SP,SP,3544707,-21.8823,-50.9594,640.0,0.18,0.281
2000,Sales - SP,SP,3544806,-21.3427,-49.4897,164.0,0.012,0.073
2000,Sales Oliveira - SP,SP,3544905,-20.7696,-47.8369,2775.0,1.56,0.562
2000,Salesópolis - SP,SP,3545001,-23.5288,-45.8465,4000.0,0.004,0.001
2000,Salmourão - SP,SP,3545100,-21.6267,-50.8614,1283.0,0.562,0.438
2000,Salto - SP,SP,3545209,-23.1996,-47.2931,2166.0,0.065,0.03
2000,Salto Grande - SP,SP,3545407,-22.8894,-49.9831,4272.0,0.047,0.011
2000,Santa Adélia - SP,SP,3545605,-21.2427,-48.8063,2000.0,0.006,0.003
2000,Santa Albertina - SP,SP,3545704,-20.0311,-50.7297,647.0,0.022,0.034
2000,Santa Branca - SP,SP,3546009,-23.3933,-45.8875,3000.0,0.006,0.002
2000,Santa Bárbara d'Oeste - SP,SP,3545803,-22.7553,-47.4143,2315.0,0.044,0.019
2000,Santa Clara d'Oeste - SP,SP,3546108,-20.09,-50.9491,400.0,0.008,0.02
2000,Santa Cruz da Conceição - SP,SP,3546207,-22.1405,-47.4512,5806.0,0.18,0.031
2000,Santa Cruz da Esperança - SP,SP,3546256,-21.2951,-47.4304,1500.0,0.042,0.028
2000,Santa Cruz das Palmeiras - SP,SP,3546306,-21.8235,-47.248,2560.0,1.114,0.435
2000,Santa Cruz do Rio Pardo - SP,SP,3546405,-22.8988,-49.6354,2136.0,2.16,1.011
2000,Santa Ernestina - SP,SP,3546504,-21.4618,-48.3953,1727.0,0.019,0.011
2000,Santa Fé do Sul - SP,SP,3546603,-20.2083,-50.932,640.0,0.155,0.242
2000,Santa Isabel - SP,SP,3546801,-23.3172,-46.2237,1250.0,0.015,0.012
2000,Santa Lúcia - SP,SP,3546900,-21.685,-48.0885,7333.0,0.022,0.003
2000,Santa Maria da Serra - SP,SP,3547007,-22.5661,-48.1593,2785.0,0.156,0.056
2000,Santa Mercedes - SP,SP,3547106,-21.3495,-51.7564,2181.0,0.048,0.022
2000,Santa Rita d'Oeste - SP,SP,3547403,-20.1414,-50.8358,425.0,0.043,0.101
2000,Santa Rita do Passa Quatro - SP,SP,3547502,-21.7083,-47.478,1705.0,0.614,0.36
2000,Santa Rosa de Viterbo - SP,SP,3547601,-21.4776,-47.3622,2142.0,0.3,0.14
2000,Santa Salete - SP,SP,3547650,-20.2429,-50.6887,857.0,0.024,0.028
2000,Santana da Ponte Pensa - SP,SP,3547205,-20.2523,-50.8014,641.0,0.043,0.067
2000,Santo Antônio da Alegria - SP,SP,3547908,-21.0864,-47.1464,2136.0,4.123,1.93
2000,Santo Antônio de Posse - SP,SP,3548005,-22.6029,-46.9192,2562.0,1.066,0.416
2000,Santo Antônio do Aracanguá - SP,SP,3548054,-20.9331,-50.498,3500.0,0.007,0.002
2000,Santo Antônio do Jardim - SP,SP,3548104,-22.1121,-46.6845,4699.0,9.037,1.923
2000,Santópolis do Aguapeí - SP,SP,3548401,-21.6376,-50.5044,666.0,0.008,0.012
2000,Sarutaiá - SP,SP,3551207,-23.2721,-49.4763,2562.0,2.304,0.899
2000,Sebastianópolis do Sul - SP,SP,3551306,-20.6523,-49.925,1700.0,0.119,0.07
2000,Serra Azul - SP,SP,3551405,-21.3074,-47.5602,852.0,0.144,0.169
2000,Serra Negra - SP,SP,3551603,-22.6139,-46.7033,2135.0,3.84,1.798
2000,Serrana - SP,SP,3551504,-21.2043,-47.5952,1756.0,0.346,0.197
2000,Sertãozinho - SP,SP,3551702,-21.1316,-47.9875,1846.0,0.024,0.013
2000,Socorro - SP,SP,3552106,-22.5903,-46.5251,1494.0,1.68,1.124
2000,Sud Mennucci - SP,SP,3552304,-20.6872,-50.9238,1714.0,0.024,0.014
2000,Sumaré - SP,SP,3552403,-22.8204,-47.2728,2133.0,0.096,0.045
2000,Suzanápolis - SP,SP,3552551,-20.4981,-51.0268,666.0,0.004,0.006
2000,São Carlos - SP,SP,3548906,-22.0174,-47.886,2563.0,1.584,0.618
2000,São Francisco - SP,SP,3549003,-20.3623,-50.6952,431.0,0.022,0.051
2000,São Joaquim da Barra - SP,SP,3549409,-20.5812,-47.8593,1288.0,0.058,0.045
2000,São José da Bela Vista - SP,SP,3549508,-20.5935,-47.6424,1067.0,1.62,1.517
2000,São José do Barreiro - SP,SP,3549607,-22.6414,-44.5774,3272.0,0.036,0.011
2000,São José do Rio Pardo - SP,SP,3549706,-21.5953,-46.8873,2135.0,7.8,3.652
2000,São José do Rio Preto - SP,SP,3549805,-20.8113,-49.3758,2130.0,0.36,0.169
2000,São José dos Campos - SP,SP,3549904,-23.1896,-45.8841,2571.0,0.072,0.028
2000,São João da Boa Vista - SP,SP,3549102,-21.9707,-46.7944,4272.0,10.8,2.528
2000,São João das Duas Pontes - SP,SP,3549201,-20.3879,-50.3792,854.0,0.082,0.096
2000,São João de Iracema - SP,SP,3549250,-20.5111,-50.3561,655.0,0.019,0.029
2000,São João do Pau d'Alho - SP,SP,3549300,-21.2662,-51.6672,2135.0,0.252,0.118
2000,São Luiz do Paraitinga - SP,SP,3550001,-23.222,-45.3109,1714.0,0.012,0.007
2000,São Manuel - SP,SP,3550100,-22.7321,-48.5723,1709.0,2.88,1.685
2000,São Pedro - SP,SP,3550407,-22.5483,-47.9096,2181.0,0.024,0.011
2000,São Pedro do Turvo - SP,SP,3550506,-22.7453,-49.7428,1288.0,0.067,0.052
2000,São Sebastião da Grama - SP,SP,3550803,-21.7041,-46.8208,3204.0,16.2,5.056
2000,São Simão - SP,SP,3550902,-21.4732,-47.5518,2130.0,0.098,0.046
2000,Tabapuã - SP,SP,3552601,-20.9602,-49.0307,2129.0,0.181,0.085
2000,Tabatinga - SP,SP,3552700,-21.7239,-48.6896,6189.0,1.108,0.179
2000,Taciba - SP,SP,3552908,-22.3866,-51.2882,1493.0,0.614,0.411
2000,Taguaí - SP,SP,3553005,-23.4452,-49.4024,2135.0,1.2,0.562
2000,Taiaçu - SP,SP,3553104,-21.1431,-48.5112,2120.0,0.053,0.025
2000,Tambaú - SP,SP,3553302,-21.7029,-47.2703,3203.0,1.935,0.604
2000,Tanabi - SP,SP,3553401,-20.6228,-49.6563,1068.0,0.72,0.674
2000,Tapiratiba - SP,SP,3553609,-21.4713,-46.7448,3204.0,7.2,2.247
2000,Taquaritinga - SP,SP,3553708,-21.4049,-48.5103,3176.0,0.108,0.034
2000,Taquarituba - SP,SP,3553807,-23.5307,-49.241,2136.0,1.5,0.702
2000,Taubaté - SP,SP,3554102,-23.0104,-45.5593,4075.0,0.216,0.053
2000,Tejupá - SP,SP,3554201,-23.3425,-49.3722,1708.0,6.72,3.933
2000,Teodoro Sampaio - SP,SP,3554300,-22.5299,-52.1682,857.0,0.018,0.021
2000,Terra Roxa - SP,SP,3554409,-20.787,-48.3314,1000.0,0.01,0.01
2000,Timburi - SP,SP,3554607,-23.2057,-49.6096,2350.0,3.3,1.404
2000,Torrinha - SP,SP,3554706,-22.4237,-48.1731,2562.0,1.563,0.61
2000,Trabiju - SP,SP,3554755,-22.0388,-48.3342,6944.0,0.125,0.018
2000,Três Fronteiras - SP,SP,3554904,-20.2344,-50.8905,642.0,0.054,0.084
2000,Tuiuti - SP,SP,3554953,-22.8193,-46.6937,3000.0,0.168,0.056
2000,Tupi Paulista - SP,SP,3555109,-21.3825,-51.575,2135.0,0.6,0.281
2000,Tupã - SP,SP,3555000,-21.9335,-50.5191,431.0,0.066,0.153
2000,Turiúba - SP,SP,3555208,-20.9428,-50.1135,3234.0,0.152,0.047
2000,Turmalina - SP,SP,3555307,-20.0486,-50.4792,2142.0,0.03,0.014
2000,Ubarana - SP,SP,3555356,-21.165,-49.7198,1666.0,0.01,0.006
2000,Ubirajara - SP,SP,3555505,-22.5272,-49.6613,1280.0,0.625,0.488
2000,Uchoa - SP,SP,3555604,-20.9511,-49.1713,1282.0,0.109,0.085
2000,União Paulista - SP,SP,3555703,-20.8862,-49.9025,1545.0,0.034,0.022
2000,Uru - SP,SP,3555901,-21.7866,-49.2848,1915.0,0.205,0.107
2000,Urupês - SP,SP,3556008,-21.2032,-49.2931,423.0,0.022,0.052
2000,Urânia - SP,SP,3555802,-20.2455,-50.6455,2131.0,0.42,0.197
2000,Valentim Gentil - SP,SP,3556107,-20.4217,-50.0889,3214.0,0.18,0.056
2000,Valinhos - SP,SP,3556206,-22.9698,-46.9974,2125.0,0.085,0.04
2000,Valparaíso - SP,SP,3556305,-21.2229,-50.8699,1470.0,0.075,0.051
2000,Vargem - SP,SP,3556354,-22.887,-46.4124,1071.0,0.03,0.028
2000,Vargem Grande do Sul - SP,SP,3556404,-21.8322,-46.8913,3204.0,1.08,0.337
2000,Vera Cruz - SP,SP,3556602,-22.2183,-49.8207,2563.0,5.04,1.966
2000,Vinhedo - SP,SP,3556701,-23.0302,-46.9833,2727.0,0.06,0.022
2000,Viradouro - SP,SP,3556800,-20.8734,-48.293,1000.0,0.004,0.004
2000,Vitória Brasil - SP,SP,3556958,-20.1956,-50.4875,632.0,0.05,0.079
2000,Votuporanga - SP,SP,3557105,-20.4237,-49.9781,2135.0,1.2,0.562
2000,Zacarias - SP,SP,3557154,-21.0506,-50.0552,1714.0,0.06,0.035
2000,Águas da Prata - SP,SP,3500402,-21.9319,-46.7176,2563.0,2.333,0.91
2000,Águas de Lindóia - SP,SP,3500501,-22.4733,-46.6314,2200.0,0.964,0.438
2000,Álvares Florence - SP,SP,3501202,-20.3203,-49.9141,2142.0,0.3,0.14
2000,Álvaro de Carvalho - SP,SP,3501400,-22.0841,-49.719,1423.0,1.2,0.843
2000,Óleo - SP,SP,3533809,-22.9435,-49.3419,1500.0,0.084,0.056
2001,Abaíra - BA,BA,2900108,-13.2488,-41.6619,1500.0,0.375,0.25
2001,Alcobaça - BA,BA,2900801,-17.5195,-39.2036,1729.0,0.934,0.54
2001,Amargosa - BA,BA,2901007,-13.0215,-39.602,800.0,0.72,1.0
2001,América Dourada - BA,BA,2901155,-11.4429,-41.439,2000.0,0.002,0.001
2001,Andaraí - BA,BA,2901304,-12.8049,-41.3297,1800.0,0.189,0.105
2001,Antônio Gonçalves - BA,BA,2901809,-10.5767,-40.2785,928.0,0.013,0.014
2001,Arataca - BA,BA,2902252,-15.2651,-39.419,500.0,0.35,0.7
2001,Barra da Estiva - BA,BA,2902807,-13.6237,-41.3347,800.0,8.4,10.5
2001,Barra do Choça - BA,BA,2902906,-14.8654,-40.5791,1326.0,25.2,20.0
2001,Barra do Mendes - BA,BA,2903003,-11.81,-42.059,450.0,0.225,0.5
2001,Barreiras - BA,BA,2903201,-12.1439,-44.9968,2470.0,5.099,4.773
2001,Belmonte - BA,BA,2903409,-15.8608,-38.8758,600.0,0.024,0.04
2001,Boa Nova - BA,BA,2903706,-14.3598,-40.2064,600.0,0.12,0.2
2001,Boninal - BA,BA,2904001,-12.7069,-41.8286,300.0,0.009,0.03
2001,Bonito - BA,BA,2904050,-11.9668,-41.2647,2089.0,14.624,7.5
2001,Brejões - BA,BA,2904308,-13.1039,-39.7988,1000.0,6.3,6.3
2001,Caatiba - BA,BA,2904803,-14.9699,-40.4092,1200.0,0.42,0.35
2001,Caculé - BA,BA,2905008,-14.5003,-42.2229,675.0,0.027,0.04
2001,Caetité - BA,BA,2905206,-14.0684,-42.4861,719.0,0.325,0.452
2001,Camacan - BA,BA,2905602,-15.4142,-39.4919,500.0,0.071,0.142
2001,Camamu - BA,BA,2905800,-13.9398,-39.1071,1600.0,0.072,0.045
2001,Campo Formoso - BA,BA,2906006,-10.5105,-40.32,933.0,0.056,0.06
2001,Caravelas - BA,BA,2906907,-17.7268,-39.2597,1700.0,0.391,0.23
2001,Coaraci - BA,BA,2908002,-14.637,-39.5556,347.0,0.008,0.03
2001,Cocos - BA,BA,2908101,-14.1814,-44.5352,3911.0,0.841,0.705
2001,Conceição do Almeida - BA,BA,2908309,-12.7836,-39.1715,714.0,0.005,0.007
2001,Contendas do Sincorá - BA,BA,2908804,-13.7537,-41.048,900.0,0.225,0.25
2001,Correntina - BA,BA,2909307,-13.3477,-44.6333,3913.0,1.264,0.538
2001,Cravolândia - BA,BA,2909505,-13.3531,-39.8031,800.0,0.16,0.2
2001,Dário Meira - BA,BA,2910008,-14.4229,-39.9031,700.0,0.021,0.03
2001,Elísio Medrado - BA,BA,2910305,-12.9417,-39.5191,800.0,0.012,0.015
2001,Encruzilhada - BA,BA,2910404,-15.5302,-40.9124,1000.0,5.35,5.35
2001,Eunápolis - BA,BA,2910727,-16.3715,-39.5821,600.0,0.54,0.9
2001,Firmino Alves - BA,BA,2910909,-14.9823,-39.9269,709.0,0.706,0.995
2001,Floresta Azul - BA,BA,2911006,-14.8629,-39.6579,500.0,0.1,0.2
2001,Gandu - BA,BA,2911204,-13.7441,-39.4747,750.0,0.009,0.012
2001,Guanambi - BA,BA,2911709,-14.2231,-42.7799,625.0,0.005,0.008
2001,Guaratinga - BA,BA,2911808,-16.5833,-39.7847,600.0,0.42,0.7
2001,Ibiassucê - BA,BA,2912004,-14.2711,-42.257,700.0,0.014,0.02
2001,Ibicoara - BA,BA,2912202,-13.4059,-41.284,800.0,6.24,7.8
2001,Ibicuí - BA,BA,2912301,-14.845,-39.9879,600.0,0.015,0.025
2001,Ibirapitanga - BA,BA,2912707,-14.1649,-39.3787,647.0,0.022,0.034
2001,Ibirapuã - BA,BA,2912806,-17.6832,-40.1129,740.0,0.037,0.05
2001,Ibirataia - BA,BA,2912905,-14.0643,-39.6459,714.0,0.025,0.035
2001,Ibitiara - BA,BA,2913002,-12.6502,-42.2179,250.0,0.002,0.008
2001,Igaporã - BA,BA,2913408,-13.774,-42.7155,666.0,0.008,0.012
2001,Igrapiúna - BA,BA,2913457,-13.8295,-39.1361,1500.0,0.081,0.054
2001,Iguaí - BA,BA,2913507,-14.7528,-40.0894,600.0,0.06,0.1
2001,Ilhéus - BA,BA,2913606,-14.793,-39.046,290.0,0.029,0.12
2001,Irajuba - BA,BA,2914208,-13.2563,-40.0848,600.0,0.264,0.44
2001,Iraquara - BA,BA,2914406,-12.2429,-41.6155,401.0,0.241,0.6
2001,Itabela - BA,BA,2914653,-16.5732,-39.5593,600.0,1.11,1.85
2001,Itaeté - BA,BA,2915007,-12.9831,-40.9677,860.0,0.043,0.05
2001,Itagi - BA,BA,2915106,-14.1615,-40.0131,720.0,0.036,0.05
2001,Itagimirim - BA,BA,2915304,-16.0819,-39.6133,600.0,0.003,0.005
2001,Itamaraju - BA,BA,2915601,-17.0378,-39.5386,1800.0,6.005,3.336
2001,Itamari - BA,BA,2915700,-13.7782,-39.683,500.0,0.001,0.002
2001,Itambé - BA,BA,2915809,-15.2429,-40.63,1000.0,1.25,1.25
2001,Itanhém - BA,BA,2916005,-17.1642,-40.3321,750.0,0.503,0.67
2001,Itaquara - BA,BA,2916708,-13.4459,-39.9378,1000.0,0.33,0.33
2001,Itiruçu - BA,BA,2916906,-13.529,-40.1472,1000.0,2.1,2.1
2001,Itiúba - BA,BA,2917003,-10.6948,-39.8446,1000.0,0.002,0.002
2001,Itororó - BA,BA,2917102,-15.11,-40.0684,700.0,0.07,0.1
2001,Ituaçu - BA,BA,2917201,-13.8107,-41.3003,800.0,2.6,3.25
2001,Ituberá - BA,BA,2917300,-13.7249,-39.1481,1500.0,0.009,0.006
2001,Jacaraci - BA,BA,2917409,-14.8541,-42.4329,672.0,0.037,0.055
2001,Jacobina - BA,BA,2917508,-11.1812,-40.5117,477.0,0.021,0.044
2001,Jaguaquara - BA,BA,2917607,-13.5248,-39.964,1000.0,1.85,1.85
2001,Jaguarari - BA,BA,2917706,-10.2569,-40.1999,1000.0,0.002,0.002
2001,Jequié - BA,BA,2918001,-13.8509,-40.0877,600.0,0.06,0.1
2001,Jiquiriçá - BA,BA,2918209,-13.2621,-39.5737,1000.0,0.05,0.05
2001,Jitaúna - BA,BA,2918308,-14.0131,-39.8969,725.0,0.029,0.04
2001,Jucuruçu - BA,BA,2918456,-16.8488,-40.1641,1499.0,2.647,1.765
2001,Jussiape - BA,BA,2918605,-13.5155,-41.5882,1500.0,0.045,0.03
2001,Lafaiete Coutinho - BA,BA,2918704,-13.6541,-40.2119,720.0,0.432,0.6
2001,Laje - BA,BA,2918803,-13.1673,-39.4213,1000.0,0.016,0.016
2001,Lajedo do Tabocal - BA,BA,2919058,-13.4663,-40.2204,1000.0,2.12,2.12
2001,Lençóis - BA,BA,2919306,-12.5616,-41.3928,400.0,0.48,1.2
2001,Licínio de Almeida - BA,BA,2919405,-14.6842,-42.5095,685.0,0.024,0.035
2001,Luís Eduardo Magalhães - BA,BA,2919553,-12.0956,-45.7866,2804.0,6.201,3.83
2001,Macarani - BA,BA,2919702,-15.5646,-40.4209,714.0,0.025,0.035
2001,Macaúbas - BA,BA,2919801,-13.0186,-42.6945,1533.0,0.023,0.015
2001,Maracás - BA,BA,2920502,-13.4355,-40.4323,800.0,0.4,0.5
2001,Mascote - BA,BA,2920908,-15.5542,-39.3016,538.0,0.007,0.013
2001,Miguel Calmon - BA,BA,2921203,-11.4299,-40.6031,492.0,0.064,0.13
2001,Mirangaba - BA,BA,2921401,-10.961,-40.574,478.0,0.022,0.046
2001,Morro do Chapéu - BA,BA,2921708,-11.5488,-41.1565,1806.0,5.621,3.315
2001,Mortugaba - BA,BA,2921807,-15.0225,-42.3727,711.0,0.037,0.052
2001,Mucugê - BA,BA,2921906,-13.0053,-41.3703,1365.0,1.926,1.41
2001,Mulungu do Morro - BA,BA,2922052,-11.9648,-41.6374,1799.0,1.799,1.0
2001,Mundo Novo - BA,BA,2922102,-11.8541,-40.4714,1324.0,1.017,0.768
2001,Mutuípe - BA,BA,2922409,-13.2284,-39.5044,1000.0,0.015,0.015
2001,Nilo Peçanha - BA,BA,2922607,-13.604,-39.1091,1250.0,0.005,0.004
2001,Nova Canaã - BA,BA,2922706,-14.7912,-40.1458,900.0,0.27,0.3
2001,Nova Ibiá - BA,BA,2922755,-13.812,-39.6182,500.0,0.001,0.002
2001,Nova Itarana - BA,BA,2922805,-13.0241,-40.0653,1000.0,0.16,0.16
